{"type":"FeatureCollection","features":[
{"type":"Feature","geometry":{"type":"Point","coordinates":[-73.5793984,45.4986994]},"properties":{"url":"http://www.mbam.qc.ca","name":"Musée des Beaux-Arts de Montréal","phone":"+1 514 285 2000","name:en":"Montreal Museum of Fine Arts","tourism":"museum","wikidata":"Q860812","wikipedia":"en:Montreal Museum of Fine Arts","wheelchair":"yes","alt_name:en":"Museum of Fine Arts","alt_name:fr":"Musée des Beaux-Arts","opening_hours":"We-Su 10:00-17:00; Mo off"}},
{"type":"Feature","geometry":{"type":"Point","coordinates":[-73.5804177,45.493071]},"properties":{"name":"Noodles Star","phone":"+1-514-932-2888","amenity":"restaurant","cuisine":"asian","smoking":"no","capacity":"75","addr:city":"Montréal","wheelchair":"limited","addr:street":"Rue Sainte-Catherine Ouest","addr:postcode":"H3H 1M1","addr:province":"QC","opening_hours":"Mo-Su 11:00-23:00","addr:housenumber":"1871"}},
{"type":"Feature","geometry":{"type":"Point","coordinates":[-73.5172569,45.492259]},"properties":{"status":"closed","barrier":"gate","designation":"St-Lambert Lock Cycle Link Gate (West)","opening_hours":"6:00-22:00"}},
{"type":"Feature","geometry":{"type":"Point","coordinates":[-73.4678063,45.4602458]},"properties":{"name":"Maxi","shop":"supermarket","phone":"+1-450-672-3201","website":"https://www.maxi.ca/","addr:city":"Brossard","addr:street":"Boulevard Taschereau","addr:postcode":"J4W 1M9","opening_hours":"Mo-Su 08:00-22:00","addr:housenumber":"7200"}},
{"type":"Feature","geometry":{"type":"Point","coordinates":[-73.4673137,45.4692958]},"properties":{"name":"Ben & Florentine","amenity":"restaurant","cuisine":"breakfast","opening_hours":"Mo-Sa 06:00-15:00, Su 07:00-15:00"}},
{"type":"Feature","geometry":{"type":"Point","coordinates":[-73.4690218,45.4690623]},"properties":{"name":"Le Pavillon Lilas","amenity":"restaurant","opening_hours":"Mo-Su 11:00-23:00"}},
{"type":"Feature","geometry":{"type":"Point","coordinates":[-73.4721684,45.4472453]},"properties":{"atm":"yes","ref":"4478","name":"TD Canada Trust","brand":"TD Canada Trust","phone":"+1-450-465-1500","amenity":"bank","website":"http://td.com","addr:city":"Brossard","wheelchair":"yes","addr:street":"Boulevard Taschereau","addr:postcode":"J4X 1C2","opening_hours":"Mo-Tu 08:00-16:00; We-Fr 08:00-20:00; Sa 08:00-16:00","brand:wikidata":"Q1080670","brand:wikipedia":"en:TD Canada Trust","addr:housenumber":"8330"}},
{"type":"Feature","geometry":{"type":"Point","coordinates":[-73.580143,45.5272177]},"properties":{"name":"Café Expressions","phone":"+1 514 528 9688","amenity":"cafe","website":"www.cafeexpressions.com","addr:street":"Avenue du Mont-Royal Est","addr:suburb":"Le Plateau-Mont-Royal","addr:postcode":"H2J 1X4","addr:province":"QC","opening_hours":"Mo-Su 07:30-22:00","internet_access":"wlan","addr:housenumber":"957","internet_access:fee":"no"}},
{"type":"Feature","geometry":{"type":"Point","coordinates":[-73.6245969,45.4972097]},"properties":{"name":"Pharmacie Jean-Coutu","phone":"514 344-8338","amenity":"pharmacy","website":"https://www.jeancoutu.com/localisateur-succursale/montreal-5510-chemin-de-la-cote-des-neiges-h3t-1y9/215/","operator":"Groupe Jean Coutu","addr:city":"Montréal","dispensing":"yes","addr:street":"Chemin de la Côte-Des-Neiges","addr:postcode":"H3T1Y9","addr:province":"Qc","drive_through":"no","opening_hours":"Mo-Fr 8:00-22:00; Sa-Su 9:00-22:00","addr:housenumber":"5510"}},
{"type":"Feature","geometry":{"type":"Point","coordinates":[-73.5776163,45.5163162]},"properties":{"name":"Schwartz's","phone":"+1-514-842-4813","amenity":"restaurant","website":"https://schwartzdeli.com","wikidata":"Q3475576","wheelchair":"yes","addr:street":"Boulevard Saint-Laurent","wikipedia:fr":"Schwartz's","addr:postcode":"H2W 1X9","opening_hours":"Su-Th 10:30-00:30; Sa 10:30-02:30; Fr 10:30-01:30","addr:housenumber":"3895"}},
{"type":"Feature","geometry":{"type":"Point","coordinates":[-73.5734106,45.5343567]},"properties":{"name":"Les co'pains d'abord","shop":"bakery","addr:street":"Avenue du Mont-Royal Est","opening_hours":"Mo-Fr 07:00-20:00;Sa 07:00-19:00;Su 08:00-18:00","addr:housenumber":"1965"}},
{"type":"Feature","geometry":{"type":"Point","coordinates":[-73.5745764,45.497423]},"properties":{"door":"hinged","name":"LOV","email":"reservations@lov.com","phone":"+1 514 287-1155","amenity":"restaurant","website":"https://www.lov.com/","entrance":"yes","wheelchair":"no","addr:street":"Rue Montagne","opening_hours":"Mo-We 11:30-22:00; Th, Fr 11:30-23:00; Sa 10:00-23:00; Su 10:00-22:00","automatic_door":"no","addr:housenumber":"1232"}},
{"type":"Feature","geometry":{"type":"Point","coordinates":[-73.56487,45.4931763]},"properties":{"name":"Subway","brand":"Subway","amenity":"fast_food","cuisine":"sandwich","operator":"Subway","takeaway":"yes","wheelchair":"yes","opening_hours":"Mo-Fr 07:00-22:00; Sa 08:00-20:00; Su 09:00-20:00","brand:wikidata":"Q244457","brand:wikipedia":"en:Subway (restaurant)"}},
{"type":"Feature","geometry":{"type":"Point","coordinates":[-73.5640275,45.4942397]},"properties":{"name":"Coba","amenity":"cafe","cuisine":"sandwich","website":"https://www.cobabar.com","addr:city":"Montréal","addr:street":"Rue Notre-Dame Ouest","addr:province":"QC","opening_hours":"Mo-Fr 08:00-20:00; Sa-Su 09:00-20:00","internet_access":"wlan","outdoor_seating":"no","addr:housenumber":"1195","internet_access:fee":"no"}},
{"type":"Feature","geometry":{"type":"Point","coordinates":[-73.5727104,45.5351163]},"properties":{"name":"Distillerie No 2","level":"0","phone":"+1 514 523 8166","amenity":"pub","website":"http://www.distillerie.tv","addr:street":"Avenue du Mont-Royal Est","opening_hours":"Mo-Su 16:00-03:00","outdoor_seating":"yes","addr:housenumber":"2047"}},
{"type":"Feature","geometry":{"type":"Point","coordinates":[-73.58263,45.5245291]},"properties":{"atm":"yes","name":"Caisse populaire du Mont-Royal","phone":"5142885249","amenity":"bank","name:fr":"Caisse Desjardins du Plateau-Mont-Royal","website":"https://www.desjardins.com/81530197","alt_name":"Caisse Desjardins","wheelchair":"yes","addr:street":"Avenue du Mont-Royal Est","addr:postcode":"H2J 1W2","opening_hours":"Mo-Tu, Fr 09:00-17:00; We-Th 09:00-20:00; Sa 09:00-15:00","addr:housenumber":"435"}},
{"type":"Feature","geometry":{"type":"Point","coordinates":[-73.5848834,45.4888033]},"properties":{"name":"Imadake","phone":"+1-514-931-8833","amenity":"restaurant","cuisine":"japanese","website":"http://imadake.ca","addr:street":"Saint Catherine Street West","addr:postcode":"H3Z 1P2","opening_hours":"Su-We 17:00-22:30; Th 17:00-23:30; Fr-Sa 17:00-01:00","addr:housenumber":"4006"}},
{"type":"Feature","geometry":{"type":"Point","coordinates":[-73.4440867,45.4513937]},"properties":{"name":"L'Entrepôt du Cadre","shop":"art;portrait","phone":"+1-450-678-7087","website":"http://www.entrepotducadre.ca/","addr:city":"Brossard","addr:door":"30","wheelchair":"yes","addr:street":"Boulevard Leduc","addr:postcode":"J4Y 0A5","opening_hours":"Mo-Tu 09:30-18:00; We-Fr 09:30-21:00; Sa 09:00-17:00; Su 10:00-17:00","addr:housenumber":"8440"}},
{"type":"Feature","geometry":{"type":"Point","coordinates":[-73.4362172,45.4418533]},"properties":{"name":"Artemano","shop":"furniture","phone":"+1-450-676-2000","website":"https://www.artemano.ca/","addr:street":"Boulevard Leduc","addr:postcode":"J4Y 0B3","opening_hours":"Mo-Tu 10:00-18:00; We-Fr 10:00-21:00; Sa-Su 10:00-17:00","addr:housenumber":"9600"}},
{"type":"Feature","geometry":{"type":"Point","coordinates":[-73.5709484,45.4649596]},"properties":{"name":"Pierrette Patates","amenity":"fast_food","opening_hours":"Th-Sa 11:00-21:00, Tu,We,Su 11:00-20:00"}},
{"type":"Feature","geometry":{"type":"Point","coordinates":[-73.5693348,45.4630453]},"properties":{"name":"Fruiterie Soleil","shop":"supermarket","opening_hours":"Mo-Fr 08:00-20:00, Sa,Su 09:00-19:00"}},
{"type":"Feature","geometry":{"type":"Point","coordinates":[-73.4360724,45.4405343]},"properties":{"name":"JYSK","shop":"furniture","brand":"JYSK","phone":"+1-450-443-6555","website":"https://www.jysk.ca/","operator":"Jysk-Holding","addr:city":"Brossard","wheelchair":"yes","addr:street":"Boulevard Leduc","addr:postcode":"J4Y 0B3","opening_hours":"Mo-Tu 10:00-18:00; We-Fr 10:00-21:00; Sa-Su 10:00-17:00","brand:wikidata":"Q138913","brand:wikipedia":"en:Jysk (store)","addr:housenumber":"9750"}},
{"type":"Feature","geometry":{"type":"Point","coordinates":[-73.5710714,45.5133895]},"properties":{"name":"McKibbins Irish Pub","level":"0","phone":"+1 514 282 1580","amenity":"pub","website":"www.mckibbinsirishpub.com","addr:city":"Montréal","wheelchair":"limited","addr:street":"Boulevard Saint-Laurent","addr:suburb":"Le Plateau-Mont-Royal","payment:cash":"yes","addr:postcode":"H2X 2T6","addr:province":"QC","opening_hours":"Mo-Su 11:30-3:00","internet_access":"wlan","addr:housenumber":"3515","toilets:wheelchair":"no","internet_access:fee":"no","payment:debit_cards":"yes","payment:credit_cards":"yes","internet_access:operator":"Île Sans Fil"}},
{"type":"Feature","geometry":{"type":"Point","coordinates":[-73.5730929,45.5142828]},"properties":{"name":"Shish-Taouk","amenity":"fast_food","cuisine":"kebab","addr:city":"Montréal","addr:street":"Boulevard Saint-Laurent","addr:postcode":"H2X 2V5","addr:province":"QC","opening_hours":"Mo-Th 11:00-22:00","addr:housenumber":"3633"}},
{"type":"Feature","geometry":{"type":"Point","coordinates":[-73.5733734,45.5141987]},"properties":{"name":"Subway","brand":"Subway","level":"0","phone":"(514)844-8544","amenity":"fast_food","cuisine":"sandwich","website":"subway.com","delivery":"no","takeaway":"yes","addr:city":"Montréal","wheelchair":"no","addr:street":"Boulevard Saint-Laurent","payment:cash":"yes","addr:postcode":"H2X 2V4","addr:province":"QC","drive_through":"no","opening_hours":"Mo-Th 09:00-22:00, Fr 09:00-04:00, Sa 09:30-04:00, Su 09:30-21:00","brand:wikidata":"Q244457","brand:wikipedia":"en:Subway (restaurant)","addr:housenumber":"3640","payment:debit_cards":"yes","payment:credit_cards":"yes"}},
{"type":"Feature","geometry":{"type":"Point","coordinates":[-73.5743171,45.5146174]},"properties":{"name":"Bar Bifteck","level":"0","phone":"+1 514-844-6211","amenity":"bar","smoking":"no","addr:city":"Montréal","wheelchair":"limited","addr:street":"Boulevard Saint-Laurent","payment:cash":"yes","addr:province":"QC","opening_hours":"Mo-Su 14:00-03:00","addr:housenumber":"3702"}},
{"type":"Feature","geometry":{"type":"Point","coordinates":[-73.6893206,45.509918]},"properties":{"atm":"yes","name":"National Bank","brand":"National Bank","amenity":"bank","name:en":"National Bank","name:fr":"Banque Nationale","brand:en":"National Bank","brand:fr":"Banque Nationale","operator":"Banque Nationale","addr:city":"Saint-Laurent","addr:street":"Boulevard Marcel-Laurin","addr:postcode":"H4R 1J7","official_name":"National Bank of Canada","opening_hours":"Sunday Closed, Monday 10:00 am – 3:00 pm, Tuesday 10:00 am – 3:00 pm, Wednesday 10:00 am – 5:00 pm Thursday 10:00 am – 8:00 pm, Friday 10:00 am – 5:00 pm, Saturday Closed","brand:wikidata":"Q634298","brand:wikipedia":"en:National Bank of Canada","addr:housenumber":"1130","official_name:en":"National Bank of Canada","official_name:fr":"Banque Nationale du Canada"}},
{"type":"Feature","geometry":{"type":"Point","coordinates":[-73.6014946,45.5488825]},"properties":{"name":"Provi-Soir","shop":"convenience","phone":"+1-514-303-5500","addr:city":"Montréal","addr:street":"Rue Bélanger","addr:postcode":"H2G 1C3","opening_hours":"Mo-Su 06:00-23:00","addr:housenumber":"2101"}},
{"type":"Feature","geometry":{"type":"Point","coordinates":[-73.7938238,45.635168]},"properties":{"name":"Uniprix","amenity":"pharmacy","opening_hours":"Mo-Fr 09:00-20:00; Sa 09:00-17:00; Su 10:00-17:00"}},
{"type":"Feature","geometry":{"type":"Point","coordinates":[-73.5815843,45.5257124]},"properties":{"name":"Starbucks","brand":"Starbucks","source":"Local knowledge","amenity":"cafe","cuisine":"coffee_shop","takeaway":"yes","wheelchair":"limited","addr:street":"Avenue Mont-Royal Est","official_name":"Starbucks Coffee","opening_hours":"Mo-Fr 06:00-23:00;Sa,Su 07:00-23:00","brand:wikidata":"Q37158","brand:wikipedia":"en:Starbucks","internet_access":"wlan","internet_access:fee":"no"}},
{"type":"Feature","geometry":{"type":"Point","coordinates":[-73.582083,45.5251107]},"properties":{"name":"Jean Coutu","brand":"Jean Coutu","level":"0","amenity":"pharmacy","addr:city":"Montréal","healthcare":"pharmacy","wheelchair":"yes","addr:street":"Avenue du Mont-Royal Est","addr:postcode":"H2J 1W6","addr:province":"QC","drive_through":"no","opening_hours":"Mo-Sa 09:00-23:00;Su 09:30-23:00","brand:wikidata":"Q3117457","brand:wikipedia":"en:Jean Coutu Group","addr:housenumber":"501"}},
{"type":"Feature","geometry":{"type":"Point","coordinates":[-73.5822925,45.5243802]},"properties":{"name":"Café Noir","amenity":"cafe","wheelchair":"limited","opening_hours":"24/7"}},
{"type":"Feature","geometry":{"type":"Point","coordinates":[-73.5782694,45.5292629]},"properties":{"name":"India Rosa","phone":"+1 514 543 1880","amenity":"restaurant","cuisine":"indian","website":"http://indiarosa.com","addr:street":"Avenue du Mont-Royal Est","addr:suburb":"Le Plateau-Mont-Royal","addr:postcode":"H2J 1Y2","addr:province":"QC","opening_hours":"Mo-Su 11:00-24:00","outdoor_seating":"yes","addr:housenumber":"1241"}},
{"type":"Feature","geometry":{"type":"Point","coordinates":[-73.5824687,45.5346908]},"properties":{"name":"Méchant Pinson","amenity":"cafe","website":"https://www.facebook.com/mechantspinsons/","addr:city":"Montréal","wheelchair":"limited","addr:street":"Avenue Laurier Est","addr:postcode":"H2J1H9","addr:province":"QC","opening_hours":"Mo-Fr 07:00-19:00, Sa,Su 08:00-19:00","internet_access":"no","outdoor_seating":"yes","addr:housenumber":"1546"}},
{"type":"Feature","geometry":{"type":"Point","coordinates":[-73.514351,45.5288551]},"properties":{"name":"IGA","shop":"supermarket","brand":"IGA","source":"local_knowledge","operator":"Sobeys","opening_hours":"Mo-We 10:00-18:00; Th,Fr 10:00-21:00; Sa 09:00-17:00; Su 10:00-17:00","brand:wikidata":"Q3146662","brand:wikipedia":"en:IGA (supermarkets)"}},
{"type":"Feature","geometry":{"type":"Point","coordinates":[-73.6518168,45.4958011]},"properties":{"name":"SPCA Montréal","phone":"+1-514-735-2711","amenity":"animal_shelter","website":"https://www.spca.com/?page_id=2","addr:city":"Montréal","addr:street":"Rue Jean-Talon Ouest","addr:postcode":"H4P 1X4","opening_hours":"Mo-Fr 12:00-19:00; Sa, Su 11:00-17:00","addr:housenumber":"5215"}},
{"type":"Feature","geometry":{"type":"Point","coordinates":[-73.6287953,45.543654]},"properties":{"name":"Jean-Coutu","amenity":"pharmacy","dispensing":"yes","opening_hours":"Tu-Su 08:00-15:00; Sa 08:00-12:00"}},
{"type":"Feature","geometry":{"type":"Point","coordinates":[-73.8232885,45.4627796]},"properties":{"name":"IGA","shop":"supermarket","brand":"IGA","opening_hours":"Mo-Su 08:00-22:00","brand:wikidata":"Q3146662","brand:wikipedia":"en:IGA (supermarkets)"}},
{"type":"Feature","geometry":{"type":"Point","coordinates":[-73.5897879,45.4793479]},"properties":{"name":"Le Laboratoire Foulab","email":"info@foulab.org","phone":"+1-514-545-1525","leisure":"hackerspace","name:en":"Foulab Laboratory","website":"https://foulab.org/","addr:door":"33B","addr:street":"Rue du Collège","addr:postcode":"H4C 2S3","opening_hours":"24/7","addr:housenumber":"999"}},
{"type":"Feature","geometry":{"type":"Point","coordinates":[-73.5771078,45.4815765]},"properties":{"name":"Pharmaprix","brand":"Pharmaprix","amenity":"pharmacy","healthcare":"pharmacy","opening_hours":"Mo-Fr 09:00-22:00; Sa,Su 09:00-21:00","brand:wikidata":"Q1820137","brand:wikipedia":"en:Shoppers Drug Mart"}},
{"type":"Feature","geometry":{"type":"Point","coordinates":[-73.6036906,45.5409431]},"properties":{"name":"Caffe Biancamano","phone":"+15149154636","amenity":"cafe","addr:street":"Saint-Zotique Est","opening_hours":"07:00-19:00","addr:housenumber":"1251"}},
{"type":"Feature","geometry":{"type":"Point","coordinates":[-73.573946,45.483399]},"properties":{"name":"Centre de vérification technique (CVT Montréal)","phone":"+1-514-937-5341","amenity":"vehicle_inspection","website":"https://www.caaquebec.com/","addr:street":"Rue Notre-Dame Ouest","opening_hours":"Mo-Fr 07:00-17:00","addr:housenumber":"2380"}},
{"type":"Feature","geometry":{"type":"Point","coordinates":[-73.596254,45.5544269]},"properties":{"name":"Bélanger Pizzeria","amenity":"fast_food","opening_hours":"Tu-Sa 11:00-23:00; Su 16:00-23:00"}},
{"type":"Feature","geometry":{"type":"Point","coordinates":[-73.5854381,45.5274369]},"properties":{"name":"Marché 3 Piliers","shop":"supermarket","organic":"only","addr:street":"Rue Gilford","contact:email":"info@3piliers.ca","contact:phone":"+1-514-563-1204","opening_hours":"Mo-Fr 07:30-21:00; Sa-Su 09:00-19:00","contact:website":"http://www.3piliers.ca/","addr:housenumber":"750"}},
{"type":"Feature","geometry":{"type":"Point","coordinates":[-73.586356,45.525747]},"properties":{"name":"Pizzaoli","amenity":"restaurant","opening_hours":"Mo-We,Su 11:30-22:00,Th-Sa 11:30-22:30","outdoor_seating":"yes"}},
{"type":"Feature","geometry":{"type":"Point","coordinates":[-73.5862632,45.5272771]},"properties":{"name":"Fleur Bleu Dépanneur","shop":"convenience","opening_hours":"Mo-Su 08:00-21:00"}},
{"type":"Feature","geometry":{"type":"Point","coordinates":[-73.5831474,45.5263884]},"properties":{"name":"Cha Do Raku","shop":"tea","wheelchair":"no","opening_hours":"Su 13:00-18:00; Mo 13:00-20:00; Th-Sa 13:00-22:00"}},
{"type":"Feature","geometry":{"type":"Point","coordinates":[-73.5882999,45.5262457]},"properties":{"name":"Fruiterie Muscat","shop":"supermarket","opening_hours":"Sa-We 08:00-20:00; Th-Fr 08:00-21:00"}},
{"type":"Feature","geometry":{"type":"Point","coordinates":[-73.6060376,45.5492453]},"properties":{"name":"Bino","shop":"supermarket","addr:street":"Rue Jean-Talon Est","opening_hours":"Mo-Fr 10:00-19:00; Sa 10:00-18:00","addr:housenumber":"1951"}},
{"type":"Feature","geometry":{"type":"Point","coordinates":[-73.5897904,45.5702704]},"properties":{"name":"Winners","payment:visa":"yes","opening_hours":"Mo-Fr 09:30-21:00; Sa 09:00-17:00; Su 10:00-17:00","payment:interac":"yes","addr:housenumber":"4375","payment:mastercard":"yes","payment:american_express":"yes"}},
{"type":"Feature","geometry":{"type":"Point","coordinates":[-73.5895549,45.5705267]},"properties":{"name":"Bouclair","shop":"doityourself","opening_hours":"Mo,Tu 09:30-18:00; We-Fr 09:30-21:00; Sa 09:00-17:00; Su 10:00-17:00","addr:housenumber":"4425"}},
{"type":"Feature","geometry":{"type":"Point","coordinates":[-73.5894626,45.5706272]},"properties":{"name":"Chaussures Rubino","shop":"shoes","payment:visa":"yes","opening_hours":"Mo-We 10:00-18:00; Th,Fr 10:00-21:00; Sa 09:00-17:00; Su 12:00-17:00","payment:interac":"yes","addr:housenumber":"4465","payment:mastercard":"yes","payment:american_express":"yes"}},
{"type":"Feature","geometry":{"type":"Point","coordinates":[-73.6289013,45.4843131]},"properties":{"name":"Pizza Rodi","phone":"+1 514-489-9948","amenity":"fast_food","cuisine":"pizza","takeaway":"yes","addr:city":"Montréal","addr:street":"Chemin Queen Mary","addr:postcode":"H3W 1Y3","addr:province":"QC","drive_through":"no","opening_hours":"Su-We 11:00-22:00,Th-Sa 11:00-23:00","addr:housenumber":"5253"}},
{"type":"Feature","geometry":{"type":"Point","coordinates":[-73.6106274,45.5210843]},"properties":{"ele":"46.0","name":"Le lavoir d'Outremont","shop":"laundry","name:fr":"Le lavoir d'Outremont","wheelchair":"no","addr:street":"Avenue Lajoie","addr:country":"CA","addr:postcode":"H2V 1P2","addr:province":"QC","contact:phone":"+1-514-999-3234","opening_hours":"08:00-23:00","addr:housenumber":"1225"}},
{"type":"Feature","geometry":{"type":"Point","coordinates":[-73.6106649,45.5210335]},"properties":{"ele":"47.0","name":"Galanga Bistro Thaï","amenity":"restaurant","cuisine":"thai","name:fr":"Galanga Bistro Thaï","wheelchair":"no","addr:street":"Avenue Lajoie","addr:country":"CA","addr:postcode":"H2V 1P2","addr:province":"QC","contact:phone":"+1-438-381-3289","opening_hours":"Mo-Fr 11:30-14:30,17:00-22:00; Sa-Su 17:00-22:00","contact:website":"http://galanga.ca/","addr:housenumber":"1231"}},
{"type":"Feature","geometry":{"type":"Point","coordinates":[-73.6107212,45.520996]},"properties":{"ele":"47.0","name":"Le Courses de Lajoie","shop":"convenience","wheelchair":"no","addr:street":"Avenue Lajoie","addr:postcode":"H2V 1P2","contact:phone":"+1-514-277-3407","opening_hours":"Mo-Fr 8:30-23:00; Sa 9:30-23:00; Su 10:30-23:00","addr:housenumber":"1233"}},
{"type":"Feature","geometry":{"type":"Point","coordinates":[-73.6072384,45.542466]},"properties":{"name":"Futago Sushi","note":"building:level=3","level":"1","amenity":"restaurant","cuisine":"sushi","smoking":"no","website":"https://www.restomontreal.ca/en/2701/Sushi-Futago","delivery":"yes","takeaway":"yes","addr:city":"Montréal","addr:street":"Rue Bélanger","addr:postcode":"H2S 1J1","addr:province":"QC","opening_hours":"Mo-Sa 11:00-21:00, Su 16:00-21:00","outdoor_seating":"no","addr:housenumber":"1251"}},
{"type":"Feature","geometry":{"type":"Point","coordinates":[-73.5845376,45.5184058]},"properties":{"name":"L'Étagère Gourmande","phone":"+1-514-962-8134","amenity":"restaurant","cuisine":"coffee_shop","website":"http://etageregourmande.com/","addr:city":"Montréal","addr:street":"Rue Clark","addr:postcode":"H2W 1X3","addr:province":"QC","opening_hours":"Mo-Fr 08:00-19:00; Sa-Su 10:00-19:00","addr:housenumber":"4348"}},
{"type":"Feature","geometry":{"type":"Point","coordinates":[-73.582856,45.5183568]},"properties":{"atm":"yes","ele":"29.0","name":"Caisse Portugaise","amenity":"bank","operator":"Caisse Populaire Desjardins","wheelchair":"yes","opening_hours":"Mo,Tu 09:30-15:00; We 09:30-17:30; Th 09:30-18:00; Fr 09:30-16:00"}},
{"type":"Feature","geometry":{"type":"Point","coordinates":[-73.5528417,45.5071113]},"properties":{"name":"Montreal Poutine","amenity":"fast_food","cuisine":"poutine","name:fr":"Montréal Poutine","smoking":"outside","website":"http://montrealpoutine.ca","addr:city":"Montréal","wheelchair":"no","addr:street":"Rue Saint-Paul Est","payment:cash":"yes","addr:postcode":"H2Y 1G8","contact:phone":"+1-514-656-0935","opening_hours":"Su-Th 10:00-24:00;Fr-Sa 10:00-03:00","contact:twitter":"montrealpoutine","contact:website":"http://montrealpoutine.ca","internet_access":"wlan","payment:bitcoin":"yes","addr:housenumber":"161","contact:facebook":"https://www.facebook.com/MontrealPoutine","internet_access:fee":"no","payment:debit_cards":"yes","internet_access:ssid":"mpoutine"}},
{"type":"Feature","geometry":{"type":"Point","coordinates":[-73.5770991,45.543817]},"properties":{"name":"Shell","brand":"Shell","source":"local_knowledge","amenity":"fuel","wheelchair":"yes","opening_hours":"Mo-Su 00:00-24:00","brand:wikidata":"Q154950","brand:wikipedia":"en:Royal Dutch Shell"}},
{"type":"Feature","geometry":{"type":"Point","coordinates":[-73.5724408,45.5046362]},"properties":{"name":"Caffe ArtJava","amenity":"cafe","name:en":"Hinnawi Bros bagel and Coffee","addr:street":"Boulevard Robert-Bourassa","opening_hours":"Mo-Fr 07:00-19:00; Sa-Su 09:00-18:00","addr:housenumber":"2075"}},
{"type":"Feature","geometry":{"type":"Point","coordinates":[-73.607892,45.5275483]},"properties":{"name":"Mile End Bike Garage","shop":"bicycle","website":"https://www.facebook.com/groups/mileendbikegarage/","addr:city":"Montréal","addr:street":"Avenue Van Horne","description":"Atelier de réparation de bicyclettes communautaire dans le Mile End, Montréal.\nVolunteer-run community bicycle repair shop in Mile End, Montreal.","opening_hours":"Mo-Fr 19:00-22:00","addr:housenumber":"135"}},
{"type":"Feature","geometry":{"type":"Point","coordinates":[-73.5699106,45.5178476]},"properties":{"name":"Restaurant Lafleur","amenity":"fast_food","wheelchair":"yes","addr:street":"Rue Saint-Denis","opening_hours":"Su,Mo 10:30-24:00, Tu-Th 10:30-04:30, Fr,Sa 10:30-05:00","addr:housenumber":"3620"}},
{"type":"Feature","geometry":{"type":"Point","coordinates":[-73.5685107,45.5174688]},"properties":{"name":"Rio","shop":"shoes","website":"http://www.x20.com","alt_name":"X20","opening_hours":"Mo-We 11:00-18:00; Th,Fr 11:00-21:00; Sa 10:30-17:00; Su 11:30-17:00"}},
{"type":"Feature","geometry":{"type":"Point","coordinates":[-73.5710676,45.4974045]},"properties":{"name":"Consulat général d'Allemagne","phone":"+1 514 931 2277","office":"diplomatic","amenity":"embassy","country":"DE","name:de":"Generalkonsulat der Bundesrepublik Deutschland","name:en":"Consulate General of the Federal Republic of Germany","name:fr":"Consulat général d'Allemagne","website":"https://canada.diplo.de/ca-fr/missions/montreal","addr:unit":"4315","consulate":"consulate_general","diplomatic":"consulate","wheelchair":"yes","addr:street":"Boulevard René-Lévesque Ouest","addr:postcode":"H3B 4W8","opening_hours":"Mo-Fr 9:00-12:00","addr:housenumber":"1250"}},
{"type":"Feature","geometry":{"type":"Point","coordinates":[-73.5729096,45.5053767]},"properties":{"name":"Java u","amenity":"cafe","addr:street":"Rue Sherbrooke Ouest","opening_hours":"Mo-Th 07:00-21:00; Fr 07:00-20:00; Sa-Su 08:00-20:00","internet_access":"wlan","addr:housenumber":"626"}},
{"type":"Feature","geometry":{"type":"Point","coordinates":[-73.5552166,45.5026391]},"properties":{"name":"Stash Café","phone":"+1 514 845-6611","amenity":"restaurant","cuisine":"polish","website":"http://restaurantstashcafe.ca/","addr:city":"Montréal","addr:street":"Rue Saint-Paul Ouest","addr:postcode":"H2Y 1Z9","addr:province":"Québec","addr:housenumber":"200","opening_hours:covid19":"off"}},
{"type":"Feature","geometry":{"type":"Point","coordinates":[-73.5702939,45.5180206]},"properties":{"name":"Mamie Clafoutis","shop":"bakery","phone":"+1 438-380-5624","website":"www.mamieclafoutis.com","addr:city":"Montréal","addr:street":"Rue Saint-Denis","addr:postcode":"H2X 3L7","opening_hours":"Mo-Fr 06:30-20:00; Sa 07:30-20:00; Su 07:30-19:30","internet_access":"wlan","addr:housenumber":"3660"}},
{"type":"Feature","geometry":{"type":"Point","coordinates":[-73.5445533,45.5452748]},"properties":{"name":"Atomic Café","phone":"+1 514 525 9601","amenity":"cafe","cuisine":"coffee_shop;pizza;american;international","name:fr":"Atomic Café","smoking":"no","addr:city":"Montreal","addr:street":"Rue Ontario Est","addr:suburb":"Mercier-Hochelaga-Maisonneuve","addr:postcode":"H1W 1R7","addr:province":"QC","opening_hours":"Mo-Fr 08:00-23:59; Sa-Su 09:00-23:59","internet_access":"wlan","outdoor_seating":"yes","addr:housenumber":"3606","internet_access:fee":"yes","payment:debit_cards":"yes","internet_access:ssid":"atomic neu"}},
{"type":"Feature","geometry":{"type":"Point","coordinates":[-73.576886,45.49562]},"properties":{"name":"McDonald's","brand":"McDonald's","phone":"+1-514-935-5159","amenity":"fast_food","cuisine":"burger","smoking":"no","website":"http://www.mcdonalds.ca/","takeaway":"yes","addr:city":"Montréal","wheelchair":"yes","addr:street":"Rue Sainte-Catherine Ouest","addr:postcode":"H3G 1S8","opening_hours":"24/7","brand:wikidata":"Q38076","brand:wikipedia":"en:McDonald's","addr:housenumber":"1472"}},
{"type":"Feature","geometry":{"type":"Point","coordinates":[-73.580268,45.4962359]},"properties":{"atm":"yes","name":"RBC Banque Royale","amenity":"bank","name:en":"RBC Royal Bank","operator":"Banque royale du Canada","addr:city":"Montréal","wheelchair":"yes","addr:street":"Rue Guy","addr:postcode":"H3H 2L9","addr:province":"Québec","drive_through":"no","opening_hours":"Mo-We 09:00-17:00; Th 09:00-20:00; Fr 09:00-18:00; Sa 09:00-16:00; PH off","addr:housenumber":"2157","air_conditioning":"yes"}},
{"type":"Feature","geometry":{"type":"Point","coordinates":[-73.5671749,45.462988]},"properties":{"name":"Jean Coutu","brand":"Jean Coutu","amenity":"pharmacy","dispensing":"yes","healthcare":"pharmacy","wheelchair":"yes","opening_hours":"Mo-Fr 09:00-22:00; Sa,Su 09:00-21:00","brand:wikidata":"Q3117457","brand:wikipedia":"en:Jean Coutu Group"}},
{"type":"Feature","geometry":{"type":"Point","coordinates":[-73.5669669,45.4611966]},"properties":{"atm":"yes","name":"Pharmaprix","brand":"Pharmaprix","source":"Local_knowledge","amenity":"pharmacy","addr:city":"Montréa","dispensing":"yes","healthcare":"pharmacy","wheelchair":"yes","addr:street":"Rue Wellington","payment:visa":"yes","drive_through":"no","opening_hours":"Mo-Fr 09:00-22:00; Sa,Su 09:00-21:00","brand:wikidata":"Q1820137","brand:wikipedia":"en:Shoppers Drug Mart","internet_access":"no","payment:interac":"yes","addr:housenumber":"4260","payment:mastercard":"yes"}},
{"type":"Feature","geometry":{"type":"Point","coordinates":[-73.5718056,45.4554155]},"properties":{"name":"Jean Coutu","brand":"Jean Coutu","amenity":"pharmacy","dispensing":"yes","healthcare":"pharmacy","opening_hours":"Mo-Fr 08:00-22:00, Sa,Su 09:00-21:00","brand:wikidata":"Q3117457","brand:wikipedia":"en:Jean Coutu Group"}},
{"type":"Feature","geometry":{"type":"Point","coordinates":[-73.5545628,45.541261]},"properties":{"name":"PFK","amenity":"fast_food","opening_hours":"Mo,We 10:30-22:00, Tu,Th-Sa 10:30-23:00, Su 11:00-22:00"}},
{"type":"Feature","geometry":{"type":"Point","coordinates":[-73.5575974,45.542025]},"properties":{"name":"Miami","amenity":"restaurant","wheelchair":"yes","opening_hours":"24/7"}},
{"type":"Feature","geometry":{"type":"Point","coordinates":[-73.5766234,45.5236819]},"properties":{"name":"L'anecdote","amenity":"restaurant","opening_hours":"Sa 09:00-22:00; Su 09:00-21:00; Tu-Fr 11:00-22:00; Mo 11:00-21:00"}},
{"type":"Feature","geometry":{"type":"Point","coordinates":[-73.5592925,45.5409731]},"properties":{"name":"Maxi","shop":"supermarket","brand":"Maxi","addr:city":"Montréal","addr:street":"Rue Sherbrooke Est","addr:postcode":"H1W 1B2","addr:province":"Québec","contact:phone":"+1-514-521-0660","opening_hours":"08:00-22:00","brand:wikidata":"Q3302441","brand:wikipedia":"en:Maxi (Canadian supermarket)","addr:housenumber":"2925"}},
{"type":"Feature","geometry":{"type":"Point","coordinates":[-73.5626721,45.5429306]},"properties":{"name":"Bistro Part Ici","phone":"+1 514 526 7278","amenity":"restaurant","website":"www.bistropartici.ca","addr:street":"Rue André-Laurendeau","addr:suburb":"Rosemont-Petite-Patrie","addr:postcode":"H1Y 1N6","addr:province":"QC","opening_hours":"Tu-Fr 07:00-02:00; Sa-Su 21:00-02:00","internet_access":"wlan","addr:housenumber":"4100","internet_access:fee":"no","internet_access:operator":"Île Sans Fil"}},
{"type":"Feature","geometry":{"type":"Point","coordinates":[-73.5611164,45.5421003]},"properties":{"name":"Canadian Tire","shop":"department_store","brand":"Canadian Tire","wheelchair":"yes","opening_hours":"Mo-Fr 08:00-21:00, Sa,Su 08:00-17:00","brand:wikidata":"Q1032400","brand:wikipedia":"en:Canadian Tire"}},
{"type":"Feature","geometry":{"type":"Point","coordinates":[-73.5606578,45.5414652]},"properties":{"name":"Nori","amenity":"restaurant","cuisine":"sushi","website":"www.norisushi.ca","addr:street":"Rue Sherbrooke Est","opening_hours":"Mo Closed, Tu-Fr 11:30-22:00, Sa 16:00-23:00, Su 16:00-22:00","addr:housenumber":"2967"}},
{"type":"Feature","geometry":{"type":"Point","coordinates":[-73.5603146,45.5413619]},"properties":{"name":"TD Canada Trust","brand":"TD Canada Trust","amenity":"bank","wheelchair":"yes","addr:street":"Rue Sherbrooke Est","opening_hours":"Mo-We 08:00-18:00, Th,Fr 08:00-20:00, Sa 08:00-16:00","brand:wikidata":"Q1080670","brand:wikipedia":"en:TD Canada Trust","addr:housenumber":"2959"}},
{"type":"Feature","geometry":{"type":"Point","coordinates":[-73.569574,45.503135]},"properties":{"name":"Banque Scotia","amenity":"bureau_de_change","wheelchair":"yes","opening_hours":"Mo-Fr 10:00-20:00; Sa 09:30-16:00"}},
{"type":"Feature","geometry":{"type":"Point","coordinates":[-73.569424,45.503352]},"properties":{"name":"McDonald's","brand":"McDonald's","amenity":"fast_food","cuisine":"burger","website":"http://www.mcdonalds.ca/","takeaway":"yes","wheelchair":"yes","opening_hours":"24/7","brand:wikidata":"Q38076","brand:wikipedia":"en:McDonald's"}},
{"type":"Feature","geometry":{"type":"Point","coordinates":[-73.5685891,45.5042152]},"properties":{"name":"Burger King","brand":"Burger King","amenity":"fast_food","cuisine":"burger","takeaway":"yes","wheelchair":"yes","opening_hours":"24/7","brand:wikidata":"Q177054","brand:wikipedia":"en:Burger King"}},
{"type":"Feature","geometry":{"type":"Point","coordinates":[-73.567382,45.505377]},"properties":{"name":"Pharmaprix","brand":"Pharmaprix","amenity":"pharmacy","healthcare":"pharmacy","wheelchair":"yes","opening_hours":"until 22h","brand:wikidata":"Q1820137","brand:wikipedia":"en:Shoppers Drug Mart"}},
{"type":"Feature","geometry":{"type":"Point","coordinates":[-73.565653,45.507302]},"properties":{"name":"Eggspectation","phone":"+1 514 288-6448","amenity":"restaurant","website":"www.eggspectation.com","wheelchair":"yes","addr:street":"Sainte-Catherine Ouest","opening_hours":"Mo-We, Su 06:00-20:00; Th-Sa 07:00-16:00","addr:housenumber":"190"}},
{"type":"Feature","geometry":{"type":"Point","coordinates":[-73.567163,45.502602]},"properties":{"name":"Micro-Bytes","shop":"computer","addr:city":"Montreal","gst_number":"867177792","qst_number":"1021398566","store_name":"Micro-Bytes Centre-Ville","wheelchair":"yes","addr:street":"Boulevard René-Lévesque Ouest","company_name":"3477355 Canada Inc.","addr:postcode":"H3B 1R2","opening_hours":"Mo-We 9:00-18:00; Th-Fr 9:00-21:00; Sa 10:00-17:00; Su 12:00-17:00","addr:housenumber":"625"}},
{"type":"Feature","geometry":{"type":"Point","coordinates":[-73.5721883,45.5011512]},"properties":{"name":"Simons","shop":"department_store","amenity":"shop|clothes","alt_name":"La Maison Simons","addr:city":"Montréal","wheelchair":"yes","addr:street":"Sainte-Catherine  Rue  Ouest ","addr:postcode":"H3B 4W3","contact:email":"sac.web@simons.ca","contact:phone":"+1-514-289-1840","opening_hours":"Mo-We 10:00-18:00, Th,Fr 10:00-21:00, Sa 10:00-17:30, Su 11:00-17:30;Mo-We:10:00-18:00;Th-Fr:10:00-21:00;Sa:10:00-17:30;Su:11:00-17:30","contact:twitter":"https://twitter.com/SIMONS","contact:website":"simons.ca/fr/magasins/quebec/montreal-centre-ville--a13199?utm_source=Other&utm_medium=LPM&utm_campaign=LaMaisonSimons","contact:youtube":"youtube.com/user/simons","addr:housenumber":"977","contact:facebook":"facebook.com/simons.ca/","contact:linkedin":"linkedin.com/company/la-maison-simons","contact:instagram":"instagram.com/maisonsimons/"}},
{"type":"Feature","geometry":{"type":"Point","coordinates":[-73.5578094,45.5442473]},"properties":{"name":"Marché Real","shop":"convenience","opening_hours":"Mo-Sa 07:30-22:30, Su 08:30-22:00"}},
{"type":"Feature","geometry":{"type":"Point","coordinates":[-73.6002719,45.5346631]},"properties":{"name":"Petit Medley (Le)","email":"info@lepetitmedley.ca","phone":"+1-514-271-7887","amenity":"bar","website":"http://www.lepetitmedley.ca","addr:city":"Montréal","addr:street":"Rue Saint-Hubert","addr:country":"CA","addr:postcode":"H2M 2M2","addr:province":"Québec","opening_hours":"15:00-3:00","internet_access":"wlan","addr:housenumber":"6206","internet_access:fee":"no","internet_access:operator":"Île Sans Fil"}},
{"type":"Feature","geometry":{"type":"Point","coordinates":[-73.5213555,45.5237999]},"properties":{"name":"Couche-Tard","shop":"convenience","brand":"Couche-Tard","opening_hours":"Mo-Fr 06:00-24:00; Sa,Su 07:00-24:00","brand:wikidata":"Q2836957","brand:wikipedia":"en:Alimentation Couche-Tard"}},
{"type":"Feature","geometry":{"type":"Point","coordinates":[-73.5213096,45.5244603]},"properties":{"name":"Tim Hortons","brand":"Tim Hortons","amenity":"cafe","cuisine":"coffee_shop","takeaway":"yes","diet:vegan":"no","opening_hours":"Su 06:30-23:00; Mo-Fr 05:00-24:00; Sa 06:15-24:00","brand:wikidata":"Q175106","brand:wikipedia":"en:Tim Hortons","diet:vegetarian":"yes"}},
{"type":"Feature","geometry":{"type":"Point","coordinates":[-73.5803618,45.5265023]},"properties":{"name":"Second Cup","brand":"Second Cup","phone":"+1 514 528 1717","amenity":"cafe","cuisine":"coffee_shop","smoking":"no","takeaway":"yes","wheelchair":"limited","addr:street":"Avenue du Mont-Royal Est","addr:suburb":"Le Plateau-Mont-Royal","addr:postcode":"H2J 1X2","addr:province":"QC","opening_hours":"Mo-Fr 06:30-22:00; Sa-Su 07:30-22:00","brand:wikidata":"Q862180","brand:wikipedia":"en:Second Cup","internet_access":"wlan","addr:housenumber":"900","internet_access:fee":"no"}},
{"type":"Feature","geometry":{"type":"Point","coordinates":[-73.5580695,45.5048676]},"properties":{"name":"BMO","brand":"BMO","amenity":"bank","name:en":"Bank of Montreal","wheelchair":"yes","official_name":"Bank of Montreal","opening_hours":"Mo-Fr 09:00-17:00","brand:wikidata":"Q806693","brand:wikipedia":"en:Bank of Montreal"}},
{"type":"Feature","geometry":{"type":"Point","coordinates":[-73.5779337,45.4968158]},"properties":{"name":"Webster Library","amenity":"library","name:fr":"Bibliothèque Webster","wheelchair":"yes","opening_hours":"24/7"}},
{"type":"Feature","geometry":{"type":"Point","coordinates":[-73.5773895,45.4957046]},"properties":{"name":"Icebreaker","shop":"clothes","wheelchair":"yes","opening_hours":"Mo-We,Sa 10:00-18:00, Th,Fr 10:00-21:00, Su 11:00-17:00"}},
{"type":"Feature","geometry":{"type":"Point","coordinates":[-73.5773225,45.495244]},"properties":{"name":"Pharmaprix","brand":"Pharmaprix","phone":"+1-514-933-4744","amenity":"pharmacy","addr:city":"Montréal","dispensing":"yes","healthcare":"pharmacy","wheelchair":"yes","addr:street":"Rue Sainte-Catherine Ouest","addr:postcode":"H3G 1S8","opening_hours":"Mo-Su 08:00-00:00","brand:wikidata":"Q1820137","brand:wikipedia":"en:Shoppers Drug Mart","addr:housenumber":"1500"}},
{"type":"Feature","geometry":{"type":"Point","coordinates":[-73.5773279,45.4957928]},"properties":{"name":"Arc'teryx","shop":"clothes","brand":"Arc'teryx","clothes":"men;women","wheelchair":"yes","opening_hours":"Mo-We,Sa 10:00-18:00; Th,Fr 10:00-21:00; Su 11:00-17:00","brand:wikidata":"Q3271455","brand:wikipedia":"en:Arc'teryx"}},
{"type":"Feature","geometry":{"type":"Point","coordinates":[-73.5720519,45.4973665]},"properties":{"name":"Bier Markt Montreal","amenity":"restaurant","cuisine":"steak_house","addr:street":"Boulevard René-Lévesque Ouest","opening_hours":"Mo-We 11:30-24:00, Th 11:30-02:00, Fr,Sa 11:30-03:00, Su 11:30-24:00","internet_access":"wlan","addr:housenumber":"1221"}},
{"type":"Feature","geometry":{"type":"Point","coordinates":[-73.5758903,45.4999965]},"properties":{"name":"Wrap City","amenity":"fast_food","cuisine":"sandwich","addr:city":"Montréal","addr:street":"Boulevard De Maisonneuve Ouest","addr:postcode":"H3A 1N6","opening_hours":"Mo-Fr 07:00-23:00;Sa 08:00-23:00;Su 08:00-22:00","addr:housenumber":"1201"}},
{"type":"Feature","geometry":{"type":"Point","coordinates":[-73.5622913,45.512313]},"properties":{"name":"Le Sainte-Élisabeth","phone":"+1 514-286-4302","amenity":"bar","brewery":"yes","website":"http://ste-elisabeth.com","operator":"Le Sainte-Élisabeth","addr:city":"Montréal","wheelchair":"no","addr:street":"Rue Sainte-Élisabeth","description":"Celebrated bi-level pub known for a hideaway terrace, offering cocktails, microbrews and casual grub.","addr:postcode":"H2X 1L2","addr:province":"QC","opening_hours":"Mo-Su 15:00-03:00","outdoor_seating":"yes","addr:housenumber":"1412"}},
{"type":"Feature","geometry":{"type":"Point","coordinates":[-73.5757417,45.5023128]},"properties":{"name":"CIBC","brand":"CIBC","amenity":"bank","wheelchair":"yes","opening_hours":"Mo-We,Fr 09:30-17:00; Th 09:30-19:00","brand:wikidata":"Q666694","brand:wikipedia":"en:Canadian Imperial Bank of Commerce"}},
{"type":"Feature","geometry":{"type":"Point","coordinates":[-73.5778047,45.4963996]},"properties":{"name":"J.A de Sève Cinema","amenity":"cinema","addr:city":"Montréal","addr:street":"Boulevard de Maisonneuve Ouest","addr:province":"Québec","opening_hours":"\"24/7 but only open when events happening\"","addr:housenumber":"1400"}},
{"type":"Feature","geometry":{"type":"Point","coordinates":[-73.5775043,45.4955911]},"properties":{"name":"FOFA Gallery","tourism":"gallery","website":"fofagallery.concordia.ca","operator":"Concordia University","wheelchair":"yes","addr:street":"Rue Sainte-Catherine Ouest","opening_hours":"Mo-Fr 11:00-18:00","addr:housenumber":"1515"}},
{"type":"Feature","geometry":{"type":"Point","coordinates":[-73.5777864,45.4960824]},"properties":{"name":"Cafe Myriade","email":"info@cafemyriade.com","phone":"+1-514-939-1717","amenity":"cafe","website":"http://www.cafemyriade.com/wp/mackay/","wheelchair":"yes","addr:street":"Rue Mackay","opening_hours":"Mo-Fr 07:30-19:00; Sa, Su 09:00-19:00","addr:housenumber":"1432"}},
{"type":"Feature","geometry":{"type":"Point","coordinates":[-73.5646852,45.5156028]},"properties":{"name":"Resto Végo","email":"stdenis@restovego.ca","phone":"+1-514-845-2627","amenity":"restaurant","website":"http://www.restovego.ca/","addr:city":"Montréal","diet:vegan":"only","wheelchair":"no","addr:street":"Rue Saint-Denis","addr:postcode":"H2X 3K6","addr:province":"QC","opening_hours":"Su-We 11:00-22:00; Th 11:00-22:30; Fr-Sa 11:00-23:00","addr:housenumber":"1720"}},
{"type":"Feature","geometry":{"type":"Point","coordinates":[-73.5707884,45.5015542]},"properties":{"name":"Ben & Jerry's","brand":"Ben & Jerry's","amenity":"ice_cream","cuisine":"ice_cream","delivery":"no","addr:city":"Montréal","addr:street":"Avenue McGill College","addr:postcode":"H3B 4G7","addr:province":"QC","opening_hours":"12:00-21:00","brand:wikidata":"Q816412","brand:wikipedia":"en:Ben & Jerry's","diet:vegetarian":"only","outdoor_seating":"yes","addr:housenumber":"1200"}},
{"type":"Feature","geometry":{"type":"Point","coordinates":[-73.567699,45.507945]},"properties":{"name":"F bar","amenity":"restaurant","cuisine":"sushi","opening_hours":"Mo-Fr 11:30-14:30, Mo-We 17:00-22:00, Th-Sa 17:00-23:00"}},
{"type":"Feature","geometry":{"type":"Point","coordinates":[-73.5667228,45.5075014]},"properties":{"name":"T! Brasserie","amenity":"bar","opening_hours":"Mo-Su 11:30-22:00"}},
{"type":"Feature","geometry":{"type":"Point","coordinates":[-73.5683399,45.5040798]},"properties":{"name":"Soupebol","amenity":"restaurant","opening_hours":"Mo-Su 11:00-22:00","addr:housenumber":"1245"}},
{"type":"Feature","geometry":{"type":"Point","coordinates":[-73.5746353,45.5331424]},"properties":{"atm":"yes","name":"Banque royale","amenity":"bank","wheelchair":"yes","opening_hours":"Mo-We,Fr 09:30-17:00;Th 09:30-20:00;Sa 09:00-16:00;PH closed"}},
{"type":"Feature","geometry":{"type":"Point","coordinates":[-73.5716378,45.5005463]},"properties":{"name":"Dunn's","phone":"+1-514-395-1927","amenity":"restaurant","cuisine":"delicatessen","smoking":"no","website":"http://www.dunnsfamous.com/","capacity":"75","wikidata":"Q3041361","addr:city":"Montréal","wheelchair":"limited","addr:street":"Rue Metcalfe","wikipedia:fr":"Dunn's Famous","addr:postcode":"H3B 2V5","addr:province":"QC","opening_hours":"24/7","addr:housenumber":"1249"}},
{"type":"Feature","geometry":{"type":"Point","coordinates":[-73.5689733,45.5005301]},"properties":{"name":"The Keg Steakhouse + Bar - Place Ville Marie","phone":"+1-514-868-1999","amenity":"restaurant","cuisine":"steak_house","website":"https://www.kegsteakhouse.com/locations/place-ville-marie-keg/","addr:city":"Montréal","wheelchair":"yes","addr:street":"Place Ville Marie","addr:postcode":"H3B 2G2","addr:province":"Quebec","opening_hours":"Mo-We 10:00-24:00, Tu-Fr 11:00-01:00, Sa 16:00-01:00, Su 16:00-24:00","contact:website":"http://www.kegsteakhouse.com/en/locations/qc/montreal/place-ville-marie-keg/","addr:housenumber":"5"}},
{"type":"Feature","geometry":{"type":"Point","coordinates":[-73.557408,45.5037205]},"properties":{"name":"Café Tommy","phone":"+1-514-903-8669","source":"NRCan-CanVec-7.0","amenity":"cafe","name:en":"Café Tommy","name:fr":"Café Tommy","addr:city":"Montréal","addr:street":"Rue Notre-Dame Ouest","opening_hours":"Mo-Su 08:00-20:00","addr:housenumber":"200"}},
{"type":"Feature","geometry":{"type":"Point","coordinates":[-73.5564547,45.5011519]},"properties":{"name":"Olive et Gourmando","phone":"+1 514-350-1083","source":"NRCan-CanVec-7.0","amenity":"restaurant","name:en":"Olive + gourmando","website":"https://oliveetgourmando.com","addr:city":"Montréal","addr:street":"Rue Saint-Paul Ouest","addr:postcode":"H2Y 2A7","opening_hours":"Mo-Fr 08:00-17:00; Sa, Su 08:00-18:00","diet:vegetarian":"yes","addr:housenumber":"351","opening_hours:covid19":"off"}},
{"type":"Feature","geometry":{"type":"Point","coordinates":[-73.584161,45.5332075]},"properties":{"name":"Lapin Pressé Inc","phone":"+1 514 903 3555","amenity":"restaurant","cuisine":"coffee_shop","takeaway":"yes","wheelchair":"no","addr:street":"Rue Laurier Est","addr:suburb":"Le Plateau-Mont-Royal","addr:postcode":"H2J 1H4","addr:province":"QC","opening_hours":"Mo-Fr 07:30-18:00, Su 09:00-17:00, Sa 08:30-18:00","internet_access":"wlan","addr:housenumber":"1309","internet_access:fee":"no","internet_access:operator":"Île Sans Fil"}},
{"type":"Feature","geometry":{"type":"Point","coordinates":[-73.5844346,45.5329444]},"properties":{"name":"Métro Beaulieu Laurier","shop":"supermarket","addr:city":"Montréal","wheelchair":"yes","addr:street":"Avenue Laurier Est","payment:cash":"yes","addr:postcode":"H2J 1H2","addr:province":"QC","opening_hours":"Mo-Su 08:00-22:00","addr:housenumber":"1293","payment:debit_cards":"yes","payment:credit_cards":"yes"}},
{"type":"Feature","geometry":{"type":"Point","coordinates":[-73.5637399,45.5193018]},"properties":{"name":"Ultramar","brand":"Ultramar","diesel":"yes","amenity":"fuel","operator":"Ultramar","addr:city":"Montréal","addr:street":"Rue Ontario Est","opening_hours":"24/7","brand:wikidata":"Q3548078","brand:wikipedia":"en:Ultramar","addr:housenumber":"915"}},
{"type":"Feature","geometry":{"type":"Point","coordinates":[-73.5678501,45.4823939]},"properties":{"name":"Barserie Capri","amenity":"restaurant","cuisine":"regional","website":"http://barseriecapri.com/","entrance":"yes","opening_hours":"Mo-Su 08:00-24:00"}},
{"type":"Feature","geometry":{"type":"Point","coordinates":[-73.5729776,45.5343841]},"properties":{"name":"Jean Coutu","brand":"Jean Coutu","amenity":"pharmacy","website":"https://www.jeancoutu.com/default.aspx?langType=3084","healthcare":"pharmacy","wheelchair":"yes","addr:street":"Mont-royal est","addr:postcode":"H2H 1J4","opening_hours":"Mo-Sa 09:00-22:00; Su 10:00-22:00","brand:wikidata":"Q3117457","brand:wikipedia":"en:Jean Coutu Group","addr:housenumber":"1990"}},
{"type":"Feature","geometry":{"type":"Point","coordinates":[-73.5745596,45.5327335]},"properties":{"name":"SAQ","shop":"alcohol","brand":"SAQ","level":"0","wheelchair":"yes","opening_hours":"Su 10:00-19:00; Sa 09:30-19:00; Fr 09:30-21:00; Th 10:00-21:00; Mo-We 10:00-19:00","brand:wikidata":"Q3488077","brand:wikipedia":"en:Société des alcools du Québec"}},
{"type":"Feature","geometry":{"type":"Point","coordinates":[-73.5668259,45.4771796]},"properties":{"name":"Bronzage Soft Tan","shop":"beauty","opening_hours":"Mo-Fr 10:00-21:00; Sa,Su 11:00-18:00"}},
{"type":"Feature","geometry":{"type":"Point","coordinates":[-73.5652747,45.4763425]},"properties":{"name":"Dépanneur Beau-Soir","shop":"convenience","opening_hours":"24/7"}},
{"type":"Feature","geometry":{"type":"Point","coordinates":[-73.5632064,45.4749198]},"properties":{"name":"Dépanneur Richardson","shop":"convenience","opening_hours":"Mo-Sa 10:00-23:00; Su 11:00-23:00"}},
{"type":"Feature","geometry":{"type":"Point","coordinates":[-73.5659271,45.4763148]},"properties":{"name":"Garage Lacroix","shop":"car_repair","opening_hours":"Mo-Th 07:00-18:00; Fr 07:00-17:00"}},
{"type":"Feature","geometry":{"type":"Point","coordinates":[-73.5746684,45.477938]},"properties":{"name":"MyBicyclette","shop":"bicycle","phone":"+1-877-815-0150","opening_hours":"Mo-Fr 10:00-19:00; Sa-Su 09:00-19:00","service:bicycle:pump":"yes","service:bicycle:rental":"yes","service:bicycle:repair":"yes","service:bicycle:retail":"yes"}},
{"type":"Feature","geometry":{"type":"Point","coordinates":[-73.5639189,45.475311]},"properties":{"name":"Paul Patates Frites","amenity":"fast_food","addr:street":"Charlevoix","opening_hours":"Mo-Sa 11:00-19:30"}},
{"type":"Feature","geometry":{"type":"Point","coordinates":[-73.5685087,45.477838]},"properties":{"name":"Point Couture","shop":"second_hand","addr:city":"Montréal","addr:street":"Rue Charlevoix","opening_hours":"Mo-Fr 10:00-19:00; Sa 10:00-17:00","addr:housenumber":"1130"}},
{"type":"Feature","geometry":{"type":"Point","coordinates":[-73.5649805,45.4761747]},"properties":{"name":"Vanity 2000","shop":"hairdresser","opening_hours":"Tu,We 10:00-18:00; Th 10:00-19:00; Fr 10:00-21:00; Sa 10:00-20:00; Su \"Sur rdv\""}},
{"type":"Feature","geometry":{"type":"Point","coordinates":[-73.5745729,45.5482587]},"properties":{"name":"Rona C Bélanger","shop":"doityourself","opening_hours":"Mo-We 08:30-18:00, Th,Fr 08:30-21:00, Sa 09:00-17:00, Su 10:00-17:00"}},
{"type":"Feature","geometry":{"type":"Point","coordinates":[-73.5745139,45.5483827]},"properties":{"name":"Bijouterie La Puce","shop":"jewelry","opening_hours":"Mo-We 10:00-18:00, Th,Fr 10:00-21:00, Sa 10:00-17:00, Su 11:00-17:00"}},
{"type":"Feature","geometry":{"type":"Point","coordinates":[-73.5639628,45.4755991]},"properties":{"name":"Connie's Pizza","amenity":"fast_food","cuisine":"pizza","opening_hours":"Mo-We 11:00-22:15; Th-Sa 11:00-23:15; Su 15:00-21:15"}},
{"type":"Feature","geometry":{"type":"Point","coordinates":[-73.5623388,45.5147125]},"properties":{"name":"Thaï Express","phone":"+1 514-903-6662","amenity":"fast_food","cuisine":"asian","website":"https://thaiexpress.ca/","wheelchair":"no","addr:street":"Rue Saint Denis","opening_hours":"Mo-Th, Su 11:00-23:00; Fr, Sa 11:00-00:00","internet_access":"wlan","addr:housenumber":"1581","internet_access:fee":"no","payment:debit_cards":"yes"}},
{"type":"Feature","geometry":{"type":"Point","coordinates":[-73.5810679,45.5262668]},"properties":{"name":"Multimags","shop":"books","opening_hours":"Mo-Sa 08:00-21:00, Su 09:00-20:00"}},
{"type":"Feature","geometry":{"type":"Point","coordinates":[-73.5817633,45.5254976]},"properties":{"name":"L'Échange","shop":"books","wheelchair":"limited","addr:street":"Avenue du Mont-Royal Est","second_hand":"only","opening_hours":"Mo-Fr 10:00-22:00","addr:housenumber":"713"}},
{"type":"Feature","geometry":{"type":"Point","coordinates":[-73.5810859,45.5229459]},"properties":{"name":"Renaud-Bray","shop":"books","opening_hours":"Mo-Su 09:00-22:00"}},
{"type":"Feature","geometry":{"type":"Point","coordinates":[-73.5750501,45.5079872]},"properties":{"name":"The Word Bookstore","shop":"books","email":"wordbook@securenet.net","phone":"(514) 845-5640","website":"http://wordbookstore.ca","operator":"The Word Bookstore","wikidata":"Q7775786","addr:city":"Montréal","wheelchair":"no","addr:street":"Rue Milton","addr:postcode":"H2X 1W5","addr:province":"QC","opening_hours":"Mo-We, Sa 10:00-18:00; Th-Fr 10:00-21:00","addr:housenumber":"469"}},
{"type":"Feature","geometry":{"type":"Point","coordinates":[-73.5748062,45.5253055]},"properties":{"name":"La Fonderie Montreal","phone":"+1-514-525-2415","amenity":"restaurant","cuisine":"poutine","name:fr":"La banquise","smoking":"no","website":"http://restolabanquise.com","takeaway":"yes","addr:city":"Montréal","addr:street":"Rue Rachel Est","addr:postcode":"H2J 2J3","addr:province":"QC","opening_hours":"24/7","addr:housenumber":"994"}},
{"type":"Feature","geometry":{"type":"Point","coordinates":[-73.5718392,45.5028438]},"properties":{"name":"Yeh Yogurt and cafe","phone":"+1 514 284 0808","amenity":"cafe","cuisine":"ice_cream","website":"http://yehyogurt.com/","wheelchair":"yes","addr:street":"Rue Sainte-Catherine Ouest","designation":"crepe","opening_hours":"Mo-Fr 10:00-21:00;Sa 10:00-18:00;Su 11:00-17:00","addr:housename":"Eaton Centre","addr:housenumber":"705"}},
{"type":"Feature","geometry":{"type":"Point","coordinates":[-73.6105565,45.5313365]},"properties":{"name":"Vices & Versa","phone":"+1 514 272 2498","amenity":"pub","brewery":"yes","cuisine":"italian","website":"https://www.vicesetversa.com/","addr:city":"Montréal","addr:street":"Boulevard Saint-Laurent","addr:suburb":"Rosemont-Petite-Patrie","description":"Local microbrews","addr:postcode":"H2S 3C5","addr:province":"QC","opening_hours":"Mo-Su 11:30-03:00","internet_access":"wlan","addr:housenumber":"6631","internet_access:fee":"no"}},
{"type":"Feature","geometry":{"type":"Point","coordinates":[-73.5623574,45.5200116]},"properties":{"name":"Réseau Koumbit","email":"info@koumbit.org","office":"it","website":"https://www.koumbit.org/","addr:city":"Montréal","addr:door":"308","addr:street":"Rue Amherst","addr:postcode":"H2L 3L7","addr:province":"QC","opening_hours":"Mo-Fr 10:00-17:00","addr:housenumber":"1883"}},
{"type":"Feature","geometry":{"type":"Point","coordinates":[-73.6046218,45.5337157]},"properties":{"name":"Pho' Tây Hô","phone":"+1-514-273-5627","amenity":"restaurant","cuisine":"vietnamese","smoking":"no","capacity":"75","addr:city":"Montréal","wheelchair":"yes","addr:street":"Rue Saint-Denis","opening_hours":"We-Mo 10:00-21:00","addr:housenumber":"6414"}},
{"type":"Feature","geometry":{"type":"Point","coordinates":[-73.785467,45.6146316]},"properties":{"name":"Bagel Sainte-Rose","shop":"bakery","opening_hours":"Mo-Su 10:00-15:00"}},
{"type":"Feature","geometry":{"type":"Point","coordinates":[-73.5699941,45.5128798]},"properties":{"name":"La P'tite Grenouille","phone":"+1-514-900-1043","sport":"All","amenity":"bar","cuisine":"american","website":"ptitegrenouillemontreal.com","addr:city":"Montréal","addr:street":"Boulevard Saint-Laurent","addr:postcode":"H2X 2T6","addr:province":"QC","opening_hours":"Mo-Sa 17:00-03:00,Su 17:00-00:00","addr:housenumber":"3435"}},
{"type":"Feature","geometry":{"type":"Point","coordinates":[-73.5667746,45.5116702]},"properties":{"name":"New Madina Super Market","shop":"convenience","phone":"+1 514 849 0546","addr:street":"Rue Ontario Est","addr:postcode":"H2X 1G8","opening_hours":"Mo-Su 09:30-21:30","addr:street:en":"Ontario Street East","addr:housenumber":"17"}},
{"type":"Feature","geometry":{"type":"Point","coordinates":[-73.6201038,45.5295471]},"properties":{"name":"Café l'Artère","email":"artere@artere.coop","phone":"+1 514 419 7798","amenity":"cafe","website":"www.artere.coop","addr:street":"Avenue du Parc","addr:suburb":"Ahuntsic-Cartierville","addr:postcode":"H3N 1X1","addr:province":"QC","opening_hours":"Mo 08:00-16:00; Tu-We 08:00-22:00; Th 08:00-23:00; Fr 08:00-00:00; Sa 10:00-00:00; Su 10:00-17:00","internet_access":"wlan","addr:housenumber":"7000","internet_access:fee":"no","internet_access:operator":"Île Sans Fil"}},
{"type":"Feature","geometry":{"type":"Point","coordinates":[-73.5758134,45.4802264]},"properties":{"name":"Super C","shop":"supermarket","brand":"Super C","phone":"+1 514 939 3542","website":"https://www.superc.ca/","wheelchair":"yes","addr:street":"Avenue Atwater","addr:postcode":"H3J 2J4","opening_hours":"Mo-Su 08:00-23:00","brand:wikidata":"Q3504127","brand:wikipedia":"en:Super C (supermarket)","addr:housenumber":"147"}},
{"type":"Feature","geometry":{"type":"Point","coordinates":[-73.6001421,45.5349142]},"properties":{"name":"Lozeau","shop":"photo","phone":"+1-514-274-6577","website":"https://lozeau.com/","addr:street":"Rue Saint-Hubert","opening_hours":"Th-Fr 9:00-21:00; Sa 9:00-17:00; Su 10:00-17:00; Mo-We 9:00-18:00","addr:housenumber":"6229"}},
{"type":"Feature","geometry":{"type":"Point","coordinates":[-73.5829126,45.5241362]},"properties":{"name":"A&W","brand":"A&W","amenity":"fast_food","cuisine":"burger","name:en":"A&W","name:fr":"A&W","takeaway":"yes","addr:city":"Montréal","addr:street":"Rue Saint-Denis","addr:postcode":"H2J 2L4","addr:province":"QC","drive_through":"no","opening_hours":"24/7","brand:wikidata":"Q2818848","brand:wikipedia":"en:A&W (Canada)","outdoor_seating":"yes","addr:housenumber":"4501"}},
{"type":"Feature","geometry":{"type":"Point","coordinates":[-73.4659411,45.4839958]},"properties":{"name":"Mercedes-Benz Rive-Sud","shop":"car","phone":"+1 450 672 2720","website":"http://www.westisland.mercedes-benz.ca/","operator":"Mercedes-Benz","addr:street":"Boulevard Taschereau","addr:postcode":"J4V 2J2","contact:email":"info@rivesud.mercedes-benz.ca","opening_hours":"Mo-Fr 09:00-21:00","service_times":"Mo-Fr 07:30-17:30","addr:housenumber":"4844"}},
{"type":"Feature","geometry":{"type":"Point","coordinates":[-73.5894654,45.52165]},"properties":{"name":"Le Comptoir Charcuteries et Vins","amenity":"restaurant","website":"http://comptoircharcuteriesetvins.ca/","addr:city":"Montréal","addr:street":"Boulevard Saint-Laurent","addr:postcode":"H2T 1R6","addr:province":"Québec","opening_hours":"Mo-Su 18:00-00:00, Sa-Su 10:00-14:00","addr:housenumber":"4807"}},
{"type":"Feature","geometry":{"type":"Point","coordinates":[-73.5788957,45.516865]},"properties":{"name":"Segal's Market","shop":"supermarket","phone":"+1-514-845-4716","source":"survey","organic":"yes","addr:city":"Montréal","wheelchair":"no","addr:street":"Boulevard Saint-Laurent","payment:cash":"yes","addr:postcode":"H2W 1V4","opening_hours":"Mo-Fr 10:00-20:00; Sa 09:00-19:00","payment:coins":"yes","addr:housenumber":"4001","payment:debit_cards":"yes","payment:credit_cards":"yes"}},
{"type":"Feature","geometry":{"type":"Point","coordinates":[-73.5774915,45.5162542]},"properties":{"name":"Prato Cafe Pizza","phone":"+1-514-285-1616","amenity":"restaurant","cuisine":"pizza","website":"https://m.facebook.com/pages/Prato-Pizzeria-Cafe/","wheelchair":"yes","addr:street":"Boul. Saint-Laurent","description":"Authentic Italian pizza restaurant.","opening_hours":"Mo-We 11:30-22:00; Th, Fr 11:30-23:00; Sa 14:30-23:00","addr:housenumber":"3891"}},
{"type":"Feature","geometry":{"type":"Point","coordinates":[-73.5787869,45.5168163]},"properties":{"ele":"0","name":"Le Vieux St-Laurent","phone":"514- 848- 0983","amenity":"restaurant","addr:city":"Montréal","wheelchair":"no","addr:street":"Boulevard Saint-Laurent","payment:cash":"yes","addr:postcode":"H2W 1Y4","addr:province":"QC","opening_hours":"Mo-Sa 6:30- 16:00, Su 7:30- 16:00","addr:housenumber":"3995","payment:debit_cards":"yes","payment:credit_cards":"yes"}},
{"type":"Feature","geometry":{"type":"Point","coordinates":[-73.5789153,45.5172908]},"properties":{"name":"Stella Estrela","shop":"bakery","opening_hours":"Tu-Sa 12:00-20:00"}},
{"type":"Feature","geometry":{"type":"Point","coordinates":[-73.5844207,45.5190896]},"properties":{"name":"Schreter's","shop":"clothes","phone":"+1-514-854-4231","website":"schreter.com","addr:city":"Montréal","wheelchair":"yes","addr:street":"Boulevard Saint-Laurent","addr:postcode":"H2W 1Z5","addr:province":"QC","opening_hours":"Mo-We 09:30-18:00; Th-Fr 09:30-21:00; Sa 09:30-17:00; Su 12:00-17:00","addr:housenumber":"4358"}},
{"type":"Feature","geometry":{"type":"Point","coordinates":[-73.5836323,45.5187436]},"properties":{"name":"Omnivore","amenity":"restaurant","addr:city":"Montréal","wheelchair":"no","addr:street":"Rue Saint-Denis","addr:province":"QC","opening_hours":"Mo-Su 11:00-22:00","addr:housenumber":"4306"}},
{"type":"Feature","geometry":{"type":"Point","coordinates":[-73.5771389,45.5157426]},"properties":{"atm":"yes","name":"National Bank","brand":"National Bank","amenity":"bank","name:en":"National Bank","name:fr":"Banque Nationale","website":"bnc.ca","brand:en":"National Bank","brand:fr":"Banque Nationale","addr:city":"Montréal","addr:street":"Boulevard Saint-Laurent","payment:cash":"yes","payment:visa":"yes","addr:postcode":"H2V 1S6","addr:province":"QC","official_name":"National Bank of Canada","opening_hours":"Mo-We 10:00- 15:00, Th 10:00, Fr 10:00-15:00","payment:coins":"yes","brand:wikidata":"Q634298","brand:wikipedia":"en:National Bank of Canada","addr:housenumber":"3850","official_name:en":"National Bank of Canada","official_name:fr":"Banque Nationale du Canada","payment:mastercard":"yes","payment:debit_cards":"yes","payment:credit_cards":"yes"}},
{"type":"Feature","geometry":{"type":"Point","coordinates":[-73.5778329,45.516132]},"properties":{"name":"Ripples","shop":"confectionery","level":"0","phone":"(514) 842-1697","website":"https://www.ripplesicecream.com/","addr:city":"Montréal","wheelchair":"no","addr:street":"Boulevard Saint-Laurent","payment:cash":"yes","addr:postcode":"H2W 1Y2","addr:province":"QC","opening_hours":"Mo-Su 12:00-00:00","addr:housenumber":"3880","payment:debit_cards":"yes","payment:credit_cards":"yes"}},
{"type":"Feature","geometry":{"type":"Point","coordinates":[-73.5637157,45.4791442]},"properties":{"name":"Bibliothèque Saint-Charles","amenity":"library","website":"http://ville.montreal.qc.ca/portal/page?_pageid=7757,84701622&_dad=portal&_schema=PORTAL","opening_hours":"Mo-Fr 09:00-18:00; Tu,We 13:00-20:00; Sa 10:00-17:00; Su 12:00-17:00"}},
{"type":"Feature","geometry":{"type":"Point","coordinates":[-73.5710337,45.5096479]},"properties":{"name":"Benelux","email":"s@brasseriebenelux.com","phone":"+1 514 543 9750","amenity":"pub","website":"http://brasseriebenelux.com/","wheelchair":"yes","addr:street":"Rue Sherbrooke Ouest","microbrewery":"yes","addr:postcode":"H2X 1X7","opening_hours":"Sa-We 14:00-03:00; Th-Fr 11:00-03:00","addr:housenumber":"245"}},
{"type":"Feature","geometry":{"type":"Point","coordinates":[-73.5713052,45.5036883]},"properties":{"name":"Laprentania Florists","note":"Metro Level","shop":"florist","level":"-1","phone":"+1 514 288 9911","website":"https://laprentania.com/","addr:street":"Saint Catherine Ouest","addr:postcode":"H3B 5K4","opening_hours":"Mo-Tu 09:00-18:00;We-Fr 09:00-21:00; Sa 10:00-17:00; Su 11:00-17:00","addr:housenumber":"677"}},
{"type":"Feature","geometry":{"type":"Point","coordinates":[-73.5873034,45.5541285]},"properties":{"name":"Provigo","shop":"supermarket","brand":"Provigo","operator":"Marc Bougie","addr:city":"Montréal","addr:street":"Rue Beaubien Est","payment:cash":"yes","addr:postcode":"H1Y 1H5","opening_hours":"Mo-Su 08:00-23:00","brand:wikidata":"Q3408306","brand:wikipedia":"en:Provigo","addr:housenumber":"3185","payment:debit_cards":"yes","payment:credit_cards":"yes"}},
{"type":"Feature","geometry":{"type":"Point","coordinates":[-73.5711739,45.5362786]},"properties":{"name":"Kasa Sushi","amenity":"restaurant","cuisine":"sushi","addr:street":"Avenue du Mont-Royal Est","opening_hours":"10:00-22:00","addr:housenumber":"2190"}},
{"type":"Feature","geometry":{"type":"Point","coordinates":[-73.571785,45.535601]},"properties":{"name":"Rona Le Quincailler","shop":"doityourself","wheelchair":"limited","addr:street":"Avenue du Mont-Royal Est","opening_hours":"Mo-We 08:00-18:00,Th-Fr 08:00-21:00;Sa 08:00-17:00;Su 09:00-17:00","addr:housenumber":"2140"}},
{"type":"Feature","geometry":{"type":"Point","coordinates":[-73.5158894,45.4924645]},"properties":{"status":"closed","barrier":"gate","designation":"St-Lambert Lock Cycle Gate (East)","opening_hours":"6:00-22:00"}},
{"type":"Feature","geometry":{"type":"Point","coordinates":[-73.6036,45.5355]},"properties":{"name":"La boîte à clous","shop":"hardware","phone":"(514) 439-4858","source":"survey","addr:city":"Montréal","addr:street":"Rue Beaubien Est","opening_hours":"Su 10:00-17:00; Mo-We 09:00-18:00; Th, Fr 09:00-21:00; Sa 09:00-17:00","addr:housenumber":"750"}},
{"type":"Feature","geometry":{"type":"Point","coordinates":[-73.5947021,45.5189557]},"properties":{"name":"Farine et Vanille","shop":"bakery","website":"https://www.farineetvanille.com/","addr:city":"Montréal","addr:street":"Avenue du Parc","payment:cash":"yes","payment:visa":"yes","addr:postcode":"H2V 2P1","addr:province":"QC","opening_hours":"Mo-Sa 08:00-18:00","payment:coins":"yes","addr:housenumber":"5000","payment:mastercard":"yes","payment:debit_cards":"yes","payment:credit_cards":"yes"}},
{"type":"Feature","geometry":{"type":"Point","coordinates":[-73.5712327,45.5036544]},"properties":{"name":"Post","level":"-1","amenity":"post_office","opening_hours":"Mo-Fr 07:30-19:00;Sa 10:00-17:00;Su 11:00-17:00"}},
{"type":"Feature","geometry":{"type":"Point","coordinates":[-73.5779767,45.5034862]},"properties":{"name":"The Flat Bike Collective","shop":"bicycle","website":"https://theflat.wordpress.com/","wheelchair":"yes","opening_hours":"Mo-Th 17:00-20:00; We off","service:bicycle:diy":"yes"}},
{"type":"Feature","geometry":{"type":"Point","coordinates":[-73.5793813,45.4976361]},"properties":{"name":"Right to Move","shop":"bicycle","phone":"(514) 999 4885","comment":"Wednesday is \"women-trans-femme only\"","name:fr":"La Voie Libre","website":"https://www.rtm-lvl.org/","addr:city":"Montréal","wheelchair":"no","addr:street":"Rue Mackay","addr:province":"QC","opening_hours":"Mo-Fr 18:00-21:00","service:bicycle:diy":"yes","service:bicycle:repair":"yes"}},
{"type":"Feature","geometry":{"type":"Point","coordinates":[-73.593732,45.4766352]},"properties":{"name":"The Home Depot","shop":"doityourself","brand":"The Home Depot","phone":"+1 514 846 4770","alt_name":"Home Depot","addr:street":"St-Antoine Ouest","opening_hours":"Mo-Fr 08:00-21:00;Sa-Su 08:00-17:00","brand:wikidata":"Q864407","brand:wikipedia":"en:The Home Depot","addr:housenumber":"4625"}},
{"type":"Feature","geometry":{"type":"Point","coordinates":[-73.6354729,45.5440055]},"properties":{"name":"Veux-tu une Bière?","shop":"alcohol","email":"veuxtuunebiere@gmail.com","phone":"+1 514 871 2771","website":"http://veuxtuunebiere.com/","addr:street":"Rue de Liège Est","addr:postcode":"H2P 2J5","opening_hours":"Mo-Su 09:00-23:00","addr:housenumber":"372"}},
{"type":"Feature","geometry":{"type":"Point","coordinates":[-73.595211,45.5228884]},"properties":{"name":"Fairmount Bagel","shop":"bakery","phone":"+1 514-272-0667","cuisine":"bagel","website":"https://fairmountbagel.com//","wheelchair":"no","addr:street":"Avenue Fairmount Ouest","payment:cash":"only","opening_hours":"24/7","addr:housenumber":"74"}},
{"type":"Feature","geometry":{"type":"Point","coordinates":[-73.5843449,45.5744219]},"properties":{"name":"McDonald's","brand":"McDonald's","amenity":"fast_food","cuisine":"burger","website":"http://www.mcdonalds.ca/","takeaway":"yes","opening_hours":"24/7","brand:wikidata":"Q38076","brand:wikipedia":"en:McDonald's"}},
{"type":"Feature","geometry":{"type":"Point","coordinates":[-73.5782696,45.5287569]},"properties":{"name":"Wok du chef","amenity":"restaurant","cuisine":"chinese","takeaway":"yes","addr:street":"Avenue du Mont-Royal Est","addr:postcode":"H2J 1Y1","contact:phone":"+1-514-525-2882","opening_hours":"Su-We 11:30-22:00; Th-Sa 11:30-23:00","addr:housenumber":"1200"}},
{"type":"Feature","geometry":{"type":"Point","coordinates":[-73.5744759,45.4832514]},"properties":{"name":"Starbucks","brand":"Starbucks","amenity":"cafe","cuisine":"coffee_shop","operator":"Starbucks","takeaway":"yes","addr:street":"Rue Notre-Dame Ouest","official_name":"Starbucks Coffee","opening_hours":"Su 07:00-22:30; Mo-We 06:00-22:30; Th-Fr 06:00-23:00; Sa 07:00-23:00","brand:wikidata":"Q37158","brand:wikipedia":"en:Starbucks","internet_access":"wlan","addr:housenumber":"2440","internet_access:fee":"no"}},
{"type":"Feature","geometry":{"type":"Point","coordinates":[-73.5748574,45.4830314]},"properties":{"name":"L'Gros Luxe","amenity":"restaurant","cuisine":"mexican","smoking":"no","website":"http://www.lgrosluxe.com/#about","addr:city":"Montréal","addr:street":"Rue Notre-Dame Ouest","description":"Resto-bar avec bonne sélection de cocktails, grilled cheese, tacos et autres repas légers. L'endroit est plutôt conçu comme un bar, mais il faut manger pour consommer de l'alcool.","addr:postcode":"H3J 1N5","addr:province":"Québec","opening_hours":"Lun-mer 17 h -23 h; jeu-vend 11 h 30 - 24 h; sam 11 h - 24 h; dim 11 h -23 h","addr:housenumber":"2472"}},
{"type":"Feature","geometry":{"type":"Point","coordinates":[-73.5755161,45.4828717]},"properties":{"name":"lili & oli","amenity":"cafe","cuisine":"coffee_shop","opening_hours":"Sa-Su 08:00-20:00; Mo-Th 07:00-22:00; Fr 07:00-20:00","addr:housenumber":"2515"}},
{"type":"Feature","geometry":{"type":"Point","coordinates":[-73.5834326,45.5196035]},"properties":{"name":"Dépanneur Bierre & Vin","shop":"convenience","wheelchair":"no","opening_hours":"Mo-Su 11:00-11:00"}},
{"type":"Feature","geometry":{"type":"Point","coordinates":[-73.5992788,45.5255775]},"properties":{"name":"Pizza St-Viateur","phone":"+1 514 907 0007","amenity":"restaurant","cuisine":"pizza","website":"http://www.pizzasaintviateur.com/","capacity":"20","addr:city":"Montréal","addr:street":"Rue Saint-Viateur Ouest","opening_hours":"Mo-We 11:00-22:00; Th-Fr 11:00-23:00; Sa-Su 16:00-22:00","addr:housenumber":"15"}},
{"type":"Feature","geometry":{"type":"Point","coordinates":[-73.594796,45.5233347]},"properties":{"name":"Wilensky","phone":"+1-514-271-0247","amenity":"fast_food","cuisine":"sandwich","name:fr":"Lunch / brunch","wikidata":"Q8001601","addr:street":"Avenue Fairmount Ouest","opening_hours":"Mo-Sa 09:00-16:00","addr:housenumber":"34"}},
{"type":"Feature","geometry":{"type":"Point","coordinates":[-73.582612,45.520502]},"properties":{"name":"Chez Doval","amenity":"restaurant","cuisine":"portuguese","created_by":"iLOE 1.9","wheelchair":"no","opening_hours":"Mo-Su 09:00-23:00"}},
{"type":"Feature","geometry":{"type":"Point","coordinates":[-73.580477,45.522688]},"properties":{"name":"Chez Danny Pizza","amenity":"fast_food","cuisine":"pizza","created_by":"iLOE 1.9","opening_hours":"Mo-Su 07:00-02:00"}},
{"type":"Feature","geometry":{"type":"Point","coordinates":[-73.7305815,45.6137172]},"properties":{"name":"Familiprix Extra","phone":"+1 450 933-5414","amenity":"pharmacy","website":"http://www.familiprix.com/bellerose","addr:street":"Boulevard Bellerose Est","addr:postcode":"H7K 1S7","opening_hours":"Mo-Fr 09:00-21:00; Sa 09:00-17:00; Su 10:00-17:00","addr:housenumber":"76"}},
{"type":"Feature","geometry":{"type":"Point","coordinates":[-73.6223941,45.4961933]},"properties":{"name":"Presse-Café","amenity":"cafe","addr:street":"Chemin de la Côte-Des-Neiges","addr:postcode":"H3T 1Y2","opening_hours":"Mo-Su 06:00-23:00","internet_access":"wlan","addr:housenumber":"5302","internet_access:fee":"no"}},
{"type":"Feature","geometry":{"type":"Point","coordinates":[-73.6244667,45.4741507]},"properties":{"name":"Subway","brand":"Subway","phone":"+1 514 807 3915","source":"survey","amenity":"fast_food","cuisine":"sandwich","website":"http://www.subway.com/","takeaway":"yes","addr:city":"Montréal","addr:street":"Avenue de Monkland","addr:postcode":"H4A 1E7","opening_hours":"Mo-Fr 07:00-22:00; Sa-Su 08:00-22:00","brand:wikidata":"Q244457","brand:wikipedia":"en:Subway (restaurant)","addr:housenumber":"5731"}},
{"type":"Feature","geometry":{"type":"Point","coordinates":[-73.5990157,45.540345]},"properties":{"name":"Lingerie Jeannine Julien","shop":"clothes","phone":"+1 514 277 2779","clothes":"underwear","website":"http://www.tailleplus.ca/","addr:street":"Beaubien Street East","addr:postcode":"H2G 1K8","opening_hours":"Tu-Fr 10:00-18:00; Sa 10:00-16:00","addr:housenumber":"1330"}},
{"type":"Feature","geometry":{"type":"Point","coordinates":[-73.5776373,45.5294501]},"properties":{"name":"Boutique Point G","shop":"bakery","phone":"+1 514 750 7515","website":"www.boutiquepointg.com","addr:street":"Avenue du Mont-Royal Est","addr:suburb":"Le Plateau-Mont-Royal","addr:postcode":"H2J 1Y3","addr:province":"QC","opening_hours":"Mo-Sa 10:00-19:00, Su 10:00-18:00","internet_access":"wlan","addr:housenumber":"1266","internet_access:fee":"no","internet_access:operator":"Île Sans Fil"}},
{"type":"Feature","geometry":{"type":"Point","coordinates":[-73.5793052,45.5281849]},"properties":{"atm":"yes","name":"BMO","brand":"BMO","amenity":"bank","wheelchair":"yes","addr:street":"Mont-Royal","official_name":"Bank of Montreal","opening_hours":"Mo,Tu,Fr 09:00-17:00, We,Th 09:00-19:00, Sa 09:00-16:00","brand:wikidata":"Q806693","brand:wikipedia":"en:Bank of Montreal","addr:housenumber":"1101"}},
{"type":"Feature","geometry":{"type":"Point","coordinates":[-73.612704,45.5343691]},"properties":{"name":"Pizzeria Napoletana","phone":"+1-514-276-8226","amenity":"restaurant","cuisine":"italian","website":"http://www.napoletana.com/","addr:city":"Montréal","addr:street":"Rue Dante","addr:postcode":"H2S 1K1","addr:province":"QC","opening_hours":"Mo-Th 11:00-22:30; Fr-Sa 11:00-23:30; Su 12:00-22:30","addr:housenumber":"189"}},
{"type":"Feature","geometry":{"type":"Point","coordinates":[-73.609505,45.534206]},"properties":{"name":"Marché Royal Plus","shop":"supermarket","addr:city":"Montréal","addr:street":"Rue Saint-Zotique Est","addr:postcode":"H2S 1L3","addr:province":"QC","opening_hours":"Mo-Su 08:00-23:00","addr:housenumber":"274"}},
{"type":"Feature","geometry":{"type":"Point","coordinates":[-73.6047521,45.5291291]},"properties":{"name":"L. Villeneuve & cie (1973) ltée","shop":"hardware","website":"http://www.lvilleneuve.com","addr:street":"Avenue Bellechase","opening_hours":"Mo-Th 07:00-18:00; Fr 07:00-21:00; Sa 08:00-17:00; Su 09:00-17:00"}},
{"type":"Feature","geometry":{"type":"Point","coordinates":[-73.6138708,45.5360889]},"properties":{"name":"Marché des saveurs","shop":"supermarket","name:fr":"Marché des saveurs du Québec","addr:street":"Place du Marché-du-Nord","opening_hours":"Sa-We 09:00-18:00; Th-Fr 09:00-20:00","addr:housenumber":"280"}},
{"type":"Feature","geometry":{"type":"Point","coordinates":[-73.5701588,45.5342993]},"properties":{"name":"Maam Bolduc","amenity":"restaurant","cuisine":"regional;burger;poutine;breakfast","addr:city":"Montréal","addr:street":"Avenue de Lorimier","addr:postcode":"H2H 2B3","addr:province":"Québec","opening_hours":"Mo-Su 08:00-22:00","addr:housenumber":"4351"}},
{"type":"Feature","geometry":{"type":"Point","coordinates":[-73.5440277,45.5448476]},"properties":{"name":"Dollarama","shop":"variety_store","brand":"Dollarama","addr:street":"Rue Ontario Est","addr:postcode":"H1W 1R5","opening_hours":"Mo-Fr 09:00-21:00; Sa-Su 09:00-17:00","brand:wikidata":"Q3033947","brand:wikipedia":"en:Dollarama","building:levels":"0","addr:housenumber":"3510"}},
{"type":"Feature","geometry":{"type":"Point","coordinates":[-73.5714912,45.5206013]},"properties":{"name":"Fruiterie du Plateau","shop":"convenience","wheelchair":"yes","addr:street":"Roy","addr:postcode":"H2L 1C9","opening_hours":"Mo-Su 08:30-21:00","addr:housenumber":"515"}},
{"type":"Feature","geometry":{"type":"Point","coordinates":[-73.5755234,45.4789796]},"properties":{"opening_hours":"\"seasonal\""}},
{"type":"Feature","geometry":{"type":"Point","coordinates":[-73.5947224,45.5240807]},"properties":{"url":"http://lawrencerestaurant.com","name":"Lawrence","phone":"+1 514 503 1070","amenity":"restaurant","website":"http://www.lawrencerestaurant.com/","addr:city":"Montréal","addr:street":"Boulevard Saint-Laurent","addr:postcode":"H2T 2L9","addr:province":"Québec","opening_hours":"Tu-Sa 17:30-23:00, Tu-Fr 11:30-15:00, Sa-Su 10:00-15:00","addr:housenumber":"5201"}},
{"type":"Feature","geometry":{"type":"Point","coordinates":[-73.5861322,45.5198493]},"properties":{"name":"Allô! Mon Coco","amenity":"restaurant","cuisine":"breakfast","addr:street":"Boulevard Saint-Laurent","addr:suburb":"Le Plateau-Mont-Royal","addr:postcode":"H2W 1Z5","addr:province":"QC","opening_hours":"Mo-Su 07:00-16:00","addr:housenumber":"4448"}},
{"type":"Feature","geometry":{"type":"Point","coordinates":[-73.5871355,45.5194768]},"properties":{"name":"SAQ","shop":"alcohol","brand":"SAQ","opening_hours":"Sa 10:00-22:00; Su-Fr 11:00-22:00","brand:wikidata":"Q3488077","brand:wikipedia":"en:Société des alcools du Québec"}},
{"type":"Feature","geometry":{"type":"Point","coordinates":[-73.5746102,45.4833584]},"properties":{"amenity":"bicycle_parking","capacity":"6","opening_hours":"April-November","bicycle_parking":"stands"}},
{"type":"Feature","geometry":{"type":"Point","coordinates":[-73.8510469,45.4897954]},"properties":{"atm":"yes","name":"TD Canada Trust","brand":"TD Canada Trust","amenity":"bank","addr:city":"Pierrefonds","addr:street":"Boulevard Saint-Jean","addr:postcode":"H9H 4B2","contact:phone":"+1-514-626-6933","opening_hours":"Mo-Tu 08:00-18:00; We-Fr 08:00-20:00; Sa 08:00-16:00","brand:wikidata":"Q1080670","brand:wikipedia":"en:TD Canada Trust","addr:housenumber":"4840"}},
{"type":"Feature","geometry":{"type":"Point","coordinates":[-73.8214647,45.5076952]},"properties":{"atm":"yes","name":"TD Canada Trust","brand":"TD Canada Trust","amenity":"bank","addr:city":"Pierrefonds","addr:street":"Boulevard de Pierrefonds","addr:postcode":"H9A 1A1","contact:phone":"+1-514-684-4900","opening_hours":"Mo-We 08:00-18:00;Th-Fr 08:00-20:00;Sa 08:00-16:00","brand:wikidata":"Q1080670","brand:wikipedia":"en:TD Canada Trust","addr:housenumber":"11701"}},
{"type":"Feature","geometry":{"type":"Point","coordinates":[-73.556203,45.5049034]},"properties":{"name":"Noël Éternel","shop":"gift","email":"info@noeleternel.com","phone":"+1-514-285-4944","source":"survey","website":"https://www.noeleternel.com/","addr:city":"Montréal","wheelchair":"no","addr:street":"Rue Saint-Sulpice","addr:postcode":"H2Y 2V8","opening_hours":"May-Dec Mo-We 09:00-18:00, Th-Su 09:00-20:00; Jan-Apr We-Su 10:00-17:00","addr:housenumber":"461"}},
{"type":"Feature","geometry":{"type":"Point","coordinates":[-73.5508783,45.5070684]},"properties":{"male":"yes","female":"yes","amenity":"toilets","opening_hours":"Mo-Su 08:00","drinking_water":"yes"}},
{"type":"Feature","geometry":{"type":"Point","coordinates":[-73.7416942,45.444187]},"properties":{"name":"Maxi","shop":"supermarket","brand":"Maxi","phone":"+1 514 631 6234","website":"http://www.maxi.ca/fr_CA/storedetail.2062.html","addr:street":"Avenue Dorval","opening_hours":"08:00-22:00","brand:wikidata":"Q3302441","brand:wikipedia":"fr:Maxi (supermarché)","addr:housenumber":"310"}},
{"type":"Feature","geometry":{"type":"Point","coordinates":[-73.5811096,45.479372]},"properties":{"name":"Saint Henri Micro-Torrefaction","amenity":"cafe","website":"https://sainthenri.ca/","addr:street":"Rue Notre-Dame Ouest","opening_hours":"Mo-Fr 07:30-20:00; Sa,Su 08:30-20:00","internet_access":"wlan","addr:housenumber":"3632","internet_access:fee":"no"}},
{"type":"Feature","geometry":{"type":"Point","coordinates":[-73.6245159,45.5384048]},"properties":{"url":"http://cafevito.ca","name":"Café Vito","email":"info@cafevito.ca","amenity":"cafe","cuisine":"coffee_shop","addr:city":"Montréal","addr:street":"Rue Villeray","addr:country":"CA","addr:postcode":"H2R 1G4","addr:province":"Québec","opening_hours":"Mo-Su 07:00-23:00","addr:housenumber":"151"}},
{"type":"Feature","geometry":{"type":"Point","coordinates":[-73.58446,45.5248915]},"properties":{"name":"Myriade Espresso Bar","email":"info@cafemyriade.com","phone":"(514) 940-0444","amenity":"cafe","cuisine":"coffee_shop","name:fr":"myriade","website":"http://www.cafemyriade.com/","addr:city":"Montréal","addr:street":"Saint Denis","addr:postcode":"H2J 2L4","opening_hours":"09:00-18:00","internet_access":"wifi","addr:housenumber":"4627"}},
{"type":"Feature","geometry":{"type":"Point","coordinates":[-73.6060921,45.5228021]},"properties":{"atm":"yes","name":"TD Canada Trust","amenity":"bank","opening_hours":"Mo-We 08:00-18:00; Th-Fr 08:00-20:00; Sa 08:00-16:00; Su 11:00-16:00"}},
{"type":"Feature","geometry":{"type":"Point","coordinates":[-73.5580779,45.5006683]},"properties":{"name":"Brit & Chips","image":"http://www.britandchips.com/english/wp-content/uploads/2012/07/britpic1_lg2.jpeg","phone":"+1-514-840-1001","amenity":"fast_food","cuisine":"british","website":"https://www.britandchips.com/","wheelchair":"yes","addr:street":"McGill","addr:postcode":"H2Y 2H1","opening_hours":"Su-We 11:00-23:00;Th-Sa 11:00-00:00","addr:housenumber":"433"}},
{"type":"Feature","geometry":{"type":"Point","coordinates":[-73.5839352,45.5225459]},"properties":{"name":"Le port de tête","shop":"books","email":"portdetete@videotron.ca","phone":"+1-514-678-9566","website":"https://leportdetete.leslibraires.ca/","wheelchair":"no","addr:street":"Mont Royal Est","addr:postcode":"H2T 1P5","opening_hours":"Mo-Sa 10:00-22:00, Su 10:00-20:00","addr:housename":"Le port de tête","addr:housenumber":"262"}},
{"type":"Feature","geometry":{"type":"Point","coordinates":[-73.6139343,45.5382051]},"properties":{"name":"Marché Oriental","shop":"supermarket","phone":"+1-514-271-7878","addr:city":"Montréal","addr:street":"Rue Saint-Denis","opening_hours":"Sa-We 9:30-19:00; Th-Fr 9:30-21:00","addr:housenumber":"7101"}},
{"type":"Feature","geometry":{"type":"Point","coordinates":[-73.6045704,45.5245769]},"properties":{"name":"La Lumière du Mile-End","phone":"+1-514-658-4949","amenity":"cafe","website":"http://www.lalumieredumileend.com","addr:street":"Bernard Ouest","addr:postcode":"H2T 2K4","opening_hours":"Th-Tu 11:00-20:00","addr:housenumber":"214"}},
{"type":"Feature","geometry":{"type":"Point","coordinates":[-73.5976905,45.5275845]},"properties":{"name":"Shakti Rock Gym","email":"info@shaktirockgym.com","image":"http://www.shaktirockgym.com/wp-content/uploads/2012/ftp/IMG_0001.jpg","phone":"+1-438-380-4848","sport":"climbing","leisure":"sports_centre","website":"http://www.shaktirockgym.com","building":"warehouse","leisure_1":"sports_centre","wheelchair":"no","addr:street":"St. Viateur Est","addr:postcode":"H2T 1Y1","opening_hours":"Mo-Fr 10:00-22:00; Sa 10:30-18:00; Su 13:00-18:00","addr:housenumber":"175","climbing:boulder":"yes"}},
{"type":"Feature","geometry":{"type":"Point","coordinates":[-73.6229144,45.5287971]},"properties":{"name":"India's oven","image":"http://www.restoindiasoven.com/images/8.jpg","phone":"+1-514-509-8678","amenity":"restaurant","cuisine":"indian","website":"http://www.restoindiasoven.com","addr:street":"Jean-Talon Ouest","addr:postcode":"H3N 1R3","opening_hours":"Tu-Th 11:00-22:30; Fr-Sa 11:00-23:00; Su 11:00-22:30","addr:housenumber":"454"}},
{"type":"Feature","geometry":{"type":"Point","coordinates":[-73.6470539,45.4320917]},"properties":{"name":"Sami Fruits","note":"sells only fruit and vegetables","shop":"supermarket","addr:street":"Avenue Lafleur","addr:postcode":"H8R 3H6","opening_hours":"Mo-Su 09:00-19:30; Tu off; Th,Fr 09:00-21:00","addr:housenumber":"400"}},
{"type":"Feature","geometry":{"type":"Point","coordinates":[-73.5834622,45.5231077]},"properties":{"name":"Au Kouign-Amann","shop":"bakery","phone":"+1-514-845-8813","wheelchair":"yes","addr:street":"Mont-Royal E","addr:postcode":"H2T 1P7","opening_hours":"Mo-Fr 07:00-19:00,Sa-Su 07:00-18:00","addr:housenumber":"322"}},
{"type":"Feature","geometry":{"type":"Point","coordinates":[-73.5842279,45.5226642]},"properties":{"name":"Le port de tête","shop":"books","phone":"+1-514-678-9566","cuisine":"coffee_shop","website":"https://leportdetete.leslibraires.ca","addr:street":"Avenue du Mont-Royal Est","addr:suburb":"Le Plateau-Mont-Royal","description":"Expansion store Unité d'expansion","addr:postcode":"H2T 1P6","addr:province":"QC","opening_hours":"Mo-Sa 10:00-22:00; Su 10:00-20:00","addr:housenumber":"263","internet_access:operator":"Île Sans Fil"}},
{"type":"Feature","geometry":{"type":"Point","coordinates":[-73.58839,45.521233]},"properties":{"name":"Aux Vivres","amenity":"restaurant","cuisine":"vegan","website":"https://www.auxvivres.com/","takeaway":"yes","diet:vegan":"only","addr:street":"Boulevard Saint-Laurent","addr:postcode":"H2T 1R2","opening_hours":"Mo-Fr 11:00-23:00; Sa-Su 10:00-23:00","outdoor_seating":"yes","addr:housenumber":"4631"}},
{"type":"Feature","geometry":{"type":"Point","coordinates":[-73.6044962,45.5246175]},"properties":{"name":"Le dépanneur Café","phone":"+1-514-271-9357","amenity":"cafe","cuisine":"vegetarian","website":"http://www.ledepanneurcafe.com","addr:street":"Rue Bernard","opening_hours":"Mo-Su 07:00-18:00","internet_access":"yes","addr:housenumber":"206"}},
{"type":"Feature","geometry":{"type":"Point","coordinates":[-73.5764428,45.5455196]},"properties":{"name":"Les Coureurs de Jupons","shop":"clothes","source":"Roger la Roche","website":"www.lescoureursdejupons.com","addr:street":"Masson","designation":"Mode éthique, Designer Québécois","addr:postcode":"H1Y 1W1","opening_hours":"Mo-We 10:00-18:00, Th,Fr 10:00-21:00, Sa 10:00-17:00, Su 11:00-17:00","addr:housenumber":"2627"}},
{"type":"Feature","geometry":{"type":"Point","coordinates":[-73.5643104,45.4814286]},"properties":{"name":"Depanneur Centre","shop":"convenience","addr:city":"Montréal","addr:street":"Rue Centre","opening_hours":"Mo-Fr 09:00-23:00; Sa 10:00-23:00; Su 11:00-23:00","addr:housenumber":"2044"}},
{"type":"Feature","geometry":{"type":"Point","coordinates":[-73.5645353,45.4812096]},"properties":{"atm":"yes","name":"Desjardins Caisse Atwater-Centre","amenity":"bank","operator":"Desjardins","addr:city":"Montréal","addr:street":"Rue Centre","addr:postcode":"H3K 1J4","opening_hours":"Mo,Tu,Fr 09:00-17:00; We,Th 09:00-20:00","addr:housenumber":"2100"}},
{"type":"Feature","geometry":{"type":"Point","coordinates":[-73.5604881,45.5191309]},"properties":{"name":"De farine et d'eau fraîche","amenity":"cafe","website":"http://www.dfef.ca","addr:street":"Amherst","addr:postcode":"H2L 3L4","opening_hours":"Mo-Fr 07:30-17:00; Sa 09:00-17:00; Su 11:00-17:00","addr:housenumber":"1701"}},
{"type":"Feature","geometry":{"type":"Point","coordinates":[-73.6422406,45.4901252]},"properties":{"name":"Shell","amenity":"fuel","opening_hours":"24/7"}},
{"type":"Feature","geometry":{"type":"Point","coordinates":[-73.5807361,45.4796137]},"properties":{"name":"Boustan Sud-Ouest","brand":"Boustan","level":"0","phone":"+1-514-379-6990","amenity":"fast_food","cuisine":"middle-east","website":"http://boustan.ca","addr:street":"Rue Notre-Dame Ouest","opening_hours":"Su-Th 11:00-00:00; Fr-Sa 11:00-02:00","internet_access":"wlan","addr:housenumber":"3604","internet_access:fee":"no"}},
{"type":"Feature","geometry":{"type":"Point","coordinates":[-73.5767505,45.4817543]},"properties":{"name":"Bétonel","shop":"paint","addr:city":"Montréal","addr:street":"Rue Notre-Dame Ouest","opening_hours":"Mo-We 07:00-18:00, Th,Fr 07:00-21:00, Sa 08:00-17:00, Su 10:00-16:00","addr:housenumber":"2718"}},
{"type":"Feature","geometry":{"type":"Point","coordinates":[-73.5791434,45.4804202]},"properties":{"name":"EVOO","phone":"+1-514-846-3886","amenity":"restaurant","cuisine":"french","website":"http://www.restaurantevoo.com/","addr:city":"Montréal","addr:street":"Rue Notre-Dame Ouest","opening_hours":"We-Fr 11:30-14:00,18:00-22:30; Sa 10:00-14:00,18:00-22:30; Su 10:00-15:00","addr:housenumber":"3426"}},
{"type":"Feature","geometry":{"type":"Point","coordinates":[-73.5788579,45.4805882]},"properties":{"name":"Kam Wing","amenity":"restaurant","cuisine":"chinese","addr:city":"Montréal","addr:street":"Rue Notre-Dame Ouest","opening_hours":"Mo-Fr 11:00-14:30,17:00-22:00; Sa,Su 17:00-22:00","addr:housenumber":"3400"}},
{"type":"Feature","geometry":{"type":"Point","coordinates":[-73.5781973,45.4812293]},"properties":{"name":"Foiegwa","phone":"+1-438-387-4252","amenity":"restaurant","cuisine":"regional","min_age":"18","addr:city":"Montréal","addr:street":"Rue Notre-Dame Ouest","opening_hours":"Mo-Th 17:00-02:00; Fr-Su 10:00-15:00,17:00-02:00","addr:housenumber":"3001"}},
{"type":"Feature","geometry":{"type":"Point","coordinates":[-73.5774881,45.481654]},"properties":{"name":"Marché Bleuet","shop":"supermarket","organic":"yes","website":"http://www.marchebleuet.com/","addr:city":"Montréal","addr:street":"Rue Notre-Dame Ouest","opening_hours":"Mo,Tu 11:00-19:00; We-Fr 10:00-20:00; Sa 10:00-18:00; Su 11:00-17:00","addr:housenumber":"2733"}},
{"type":"Feature","geometry":{"type":"Point","coordinates":[-73.5825103,45.538921]},"properties":{"name":"L'entre-pot","amenity":"restaurant","cuisine":"coffee_shop","wheelchair":"no","opening_hours":"Mo-Su 08:00-18:00+"}},
{"type":"Feature","geometry":{"type":"Point","coordinates":[-73.5859541,45.520776]},"properties":{"name":"Little Burgundy","shop":"clothes","opening_hours":"Mo-We 10:00-18:00, Th,Fr 10:00-21:00, Sa 10:00-17:00, Su 11:00-17:00"}},
{"type":"Feature","geometry":{"type":"Point","coordinates":[-73.6141771,45.5215822]},"properties":{"food":"sandwiches","name":"Mamie Clafoutis","shop":"bakery","phone":"+1 514 750 7245","amenity":"cafe","website":"http://www.mamieclafoutis.com","addr:city":"Montreal","addr:street":"Avenue Van Horne","addr:suburb":"Outremont","addr:country":"CA","addr:postcode":"H2V 1K5","addr:province":"QC","opening_hours":"Mo-Sa 06:30-20:00; Su 07:00-20:00","internet_access":"wlan","addr:housenumber":"1291"}},
{"type":"Feature","geometry":{"type":"Point","coordinates":[-73.5545933,45.5311206]},"properties":{"name":"Coop Touski","source":"http://www.touski.org/","amenity":"cafe","cuisine":"mexican;american","website":"http://www.touski.org/","alt_name":"Café de quartier","addr:street":"Rue Ontario Est","designation":"Café de quartier","addr:postcode":"H2K 1W8","opening_hours":"Mo-Sa 09:00-21:00; Su 09:00-16:00","internet_access":"wlan","addr:housenumber":"2361"}},
{"type":"Feature","geometry":{"type":"Point","coordinates":[-73.5839011,45.5231101]},"properties":{"name":"Jeunesses Musicales Canada","amenity":"theatre","addr:city":"Montréal","addr:street":"Avenue du Mont-Royal Est","addr:country":"CA","addr:postcode":"H2T 1P8","addr:province":"Québec","opening_hours":"Mo-Fr 09:00-12:00,13:00-17:00","addr:housenumber":"305"}},
{"type":"Feature","geometry":{"type":"Point","coordinates":[-73.6117704,45.5361349]},"properties":{"name":"Comité logement de la Petite-Patrie","phone":"+1-514-272-9006","source":"survey","amenity":"social_facility","website":"http://www.comitelogementpetitepatrie.org","addr:city":"Montréal","wheelchair":"limited","addr:street":"Rue Drolet","addr:postcode":"H2S 2T1","addr:province":"QC","opening_hours":"Mo-Th 9:30-16:30","social_facility":"outreach","addr:housenumber":"6839 A"}},
{"type":"Feature","geometry":{"type":"Point","coordinates":[-73.5667587,45.4634535]},"properties":{"name":"Benelux","phone":"+1-514-508-5592","amenity":"pub","website":"http://www.brasseriebenelux.com/","addr:city":"Verdun","wheelchair":"no","addr:street":"Rue Wellington","beer_garden":"yes","microbrewery":"yes","addr:postcode":"H4G 1V3","opening_hours":"Mo-Su 14:00+;Th-Fr 11:00+","addr:housenumber":"4026"}},
{"type":"Feature","geometry":{"type":"Point","coordinates":[-73.5445807,45.5451318]},"properties":{"name":"Clinique médicale 3600","phone":"+1-514-526-2556","amenity":"hospital","addr:city":"Montréal","emergency":"yes","healthcare":"hospital","addr:street":"Rue Ontario Est","designation":"Clinique","addr:postcode":"H1W 1R7","addr:province":"QC","opening_hours":"Mo-Fr 08:00-15:30","addr:housenumber":"3600"}},
{"type":"Feature","geometry":{"type":"Point","coordinates":[-73.5602889,45.5075256]},"properties":{"name":"Dragon's Beard Candy","shop":"confectionery","email":"dragonsbeardcandy@hotmail.com","phone":"+1-514-916-6252","cuisine":"chinese","website":"https://www.dragonsbeardcandy.com/","addr:city":"Montréal","addr:street":"De La Gauchetière","addr:postcode":"H2Z 1C1","addr:province":"QC","opening_hours":"Mo-Su 12:00-19:00","addr:housenumber":"52B"}},
{"type":"Feature","geometry":{"type":"Point","coordinates":[-73.5596708,45.5074773]},"properties":{"name":"Swatow Plaza","shop":"mall","addr:street":"Boulevard Saint-Laurent","opening_hours":"Mo-We 10:00-19:00; Th-Sa 10:00-21:00; Su 10:00-19:00","addr:housenumber":"999"}},
{"type":"Feature","geometry":{"type":"Point","coordinates":[-73.5595122,45.5074211]},"properties":{"fee":"yes","name":"Swatow Plaza underground parking","amenity":"parking","parking":"underground","opening_hours":"Mo-Su 08:30-22:30"}},
{"type":"Feature","geometry":{"type":"Point","coordinates":[-73.5605586,45.507189]},"properties":{"name":"Restaurant Keung Kee","amenity":"restaurant","opening_hours":"Mo-Th, Su 11:30-01:00; Th, Fr 11:30-02:00"}},
{"type":"Feature","geometry":{"type":"Point","coordinates":[-73.5600098,45.5079492]},"properties":{"name":"Magasin des herbes de l'Asie Quoc Te","shop":"herbalist","opening_hours":"Mo-Su 10:00-17:20"}},
{"type":"Feature","geometry":{"type":"Point","coordinates":[-73.5606766,45.5070236]},"properties":{"name":"Restaurant The Cantonese","phone":"+1-514-397-9410","amenity":"restaurant","opening_hours":"Mo-Su 11:30-04:00"}},
{"type":"Feature","geometry":{"type":"Point","coordinates":[-73.5591783,45.5072641]},"properties":{"fax":"+1-514-874-0251","name":"Service de Voyages Asie Express","shop":"travel_agency","phone":"+1-514-878-9922","addr:city":"Montréal","addr:street":"Avenue Viger Ouest","opening_hours":"Mo-Fr 10:00-18:00; Sa 12:00-17:00","addr:housenumber":"23"}},
{"type":"Feature","geometry":{"type":"Point","coordinates":[-73.5599474,45.5076065]},"properties":{"name":"101 Ginza Queen","shop":"clothes","addr:city":"Montréal","addr:street":"Boulevard Saint-Laurent","opening_hours":"Mo-We 11:30-19:30; Th-Sa 11:30-20:30; Su 11:13-19:30","addr:housenumber":"1019"}},
{"type":"Feature","geometry":{"type":"Point","coordinates":[-73.5600527,45.5076784]},"properties":{"name":"Vacance de Festival Universel","shop":"travel_agency","phone":"+1-514-940-3881","addr:city":"Montréal","addr:street":"Boulevard Saint-Laurent","opening_hours":"Mo-Fr 09:30-18:00; Sa 11:00-16:00","addr:housenumber":"1021"}},
{"type":"Feature","geometry":{"type":"Point","coordinates":[-73.5601848,45.5077099]},"properties":{"name":"Herbes de Chine Van Show","shop":"herbalist","addr:city":"Montréal","addr:street":"Boulevard Saint-Laurent","opening_hours":"Tu-Fr 10:00-18:00; Sa 10:00-17:00","addr:housenumber":"1027"}},
{"type":"Feature","geometry":{"type":"Point","coordinates":[-73.5607014,45.5079536]},"properties":{"name":"La Maison VIP","amenity":"restaurant","cuisine":"chinese","addr:city":"Montréal","addr:street":"Rue Clark","opening_hours":"Mo-Su 11:30-04:00","addr:housenumber":"1077"}},
{"type":"Feature","geometry":{"type":"Point","coordinates":[-73.5608315,45.5080278]},"properties":{"name":"Commerce A Plus Inc","shop":"anime","addr:city":"Montréal","addr:street":"Rue Clark","opening_hours":"Mo-Su 11:00-19:30","addr:housenumber":"1085"}},
{"type":"Feature","geometry":{"type":"Point","coordinates":[-73.5705154,45.4700517]},"properties":{"name":"Marché GEMM","shop":"convenience","phone":"+1-514-766-8522","delivery":"yes","addr:city":"Montreal","addr:street":"Rue de Verdun","opening_hours":"Mo-Fr 09:00-23:00, Sa,Su 10:00-23:00"}},
{"type":"Feature","geometry":{"type":"Point","coordinates":[-73.595717,45.5243372]},"properties":{"name":"soy","amenity":"restaurant","opening_hours":"Mo-We 11:30-22:00; Th, Fr 11:30-23:00; Sa 17:00-23:00; Su 17:00-22:00"}},
{"type":"Feature","geometry":{"type":"Point","coordinates":[-73.5542299,45.4990341]},"properties":{"name":"Pizzaiolle","phone":"(514) 282-5757","source":"witness location;local knowledge","amenity":"restaurant","cuisine":"italian","website":"https://www.pizzaiolle.com/","takeaway":"yes","addr:city":"Montréal","addr:street":"Rue Marguerite-d'Youville","addr:postcode":"H3C 1W7","addr:province":"QC","opening_hours":"Mo-Su 11:30-22:00","outdoor_seating":"no","addr:housenumber":"600","air_conditioning":"yes","opening_hours:covid19":"closed"}},
{"type":"Feature","geometry":{"type":"Point","coordinates":[-73.575567,45.5465204]},"properties":{"name":"PJC Marie-Claude Demers","amenity":"pharmacy","website":"https://www.jeancoutu.com/localisateur/detail/2700-rue-Masson/Montreal/QC/H1Y1W5/93/","dispensing":"yes","healthcare":"pharmacy","addr:street":"Masson","addr:postcode":"H1Y 1W5","opening_hours":"Mo-Fr 09:00-22:00, Sa,Su 09:00-21:00","addr:housenumber":"2700"}},
{"type":"Feature","geometry":{"type":"Point","coordinates":[-73.6158922,45.5300109]},"properties":{"name":"Alexandraplatz Bar","amenity":"bar","brewery":"yes","operator":"Alexandraplatz Bar","addr:city":"Montréal","wheelchair":"yes","addr:street":"Avenue de L'Esplanade","payment:cash":"yes","addr:postcode":"H2V 1A4","addr:province":"QC","opening_hours":"Mo-We 16:00-00:00; Th-Sa 16:00-01:00; Su 16:00-23:00","outdoor_seating":"yes","addr:housenumber":"6731"}},
{"type":"Feature","geometry":{"type":"Point","coordinates":[-73.6583782,45.5977647]},"properties":{"name":"Coq-O-Bec","amenity":"fast_food","opening_hours":"Mo-Sa,Sa,Su 09:00-21:00; Fr 09:00-22:00"}},
{"type":"Feature","geometry":{"type":"Point","coordinates":[-73.542856,45.5505418]},"properties":{"name":"Super C","shop":"supermarket","brand":"Super C","opening_hours":"Mo-Su 08:00-23:00","brand:wikidata":"Q3504127","brand:wikipedia":"fr:Super C (entreprise)"}},
{"type":"Feature","geometry":{"type":"Point","coordinates":[-73.5686004,45.5584588]},"properties":{"name":"Chez La Mère","phone":"+1-514-725-9391","amenity":"restaurant","website":"https://www.restaurantchezlamere.com/","addr:city":"Montréal","addr:street":"Rue Masson","addr:postcode":"H1X 1T8","opening_hours":"24/7","addr:housenumber":"4028"}},
{"type":"Feature","geometry":{"type":"Point","coordinates":[-73.5511125,45.5558974]},"properties":{"name":"Station In Vivo","amenity":"cafe","cuisine":"coffee_shop","smoking":"no","addr:city":"Montréal","addr:street":"Avenue Pierre de Coubertin","addr:postcode":"H1V 3N7","contact:phone":"+1-514-903-1005","opening_hours":"07:00-19:00","contact:website":"http://www.stationinvivo.coop/","internet_access":"wlan","addr:housenumber":"4545"}},
{"type":"Feature","geometry":{"type":"Point","coordinates":[-73.563621,45.520371]},"properties":{"name":"Écomusée du Fier Monde","phone":"+1-514-528-8444","tourism":"museum","website":"http://ecomusee.qc.ca","wikidata":"Q3578612","addr:city":"Montréal","addr:street":"Rue Amherst","opening_hours":"We 11:00-20:00; Th,Fr 09:30-16:00; Sa,Su 10:30-17:00","addr:housenumber":"2050"}},
{"type":"Feature","geometry":{"type":"Point","coordinates":[-73.5625802,45.5210668]},"properties":{"name":"Prêt sur gages Marina","shop":"pawnbroker","level":"0","addr:street":"Ontario","opening_hours":"Mo-We 10:00-18:00, Th-Fr 10:00-21:00, Sa 09:30-17:00","addr:housenumber":"1175"}},
{"type":"Feature","geometry":{"type":"Point","coordinates":[-73.5626847,45.5201398]},"properties":{"name":"Fruiterie du petit St-Jacques","shop":"greengrocer","opening_hours":"Mo-Fr 07:00-21:00; Sa,Su 08:00-21:00","addr:housenumber":"1907"}},
{"type":"Feature","geometry":{"type":"Point","coordinates":[-73.562217,45.5199486]},"properties":{"name":"La pataterie Philippe","amenity":"fast_food","drive_in":"no","drive_through":"no","opening_hours":"Mo-Fr 11:00-19:30; Sa 11:00-19:00","addr:housenumber":"1877"}},
{"type":"Feature","geometry":{"type":"Point","coordinates":[-73.5613979,45.5195386]},"properties":{"name":"Uchi","amenity":"restaurant","cuisine":"japanese","website":"http://www.uchisuchi.com/","opening_hours":"Tu-Th 11:00-14:30,17:00-22:00; Fr 11:00-14:30,17:00-23:00; Sa 17:00-23:00; Su 17:00-22:00","addr:housenumber":"1799"}},
{"type":"Feature","geometry":{"type":"Point","coordinates":[-73.5611041,45.519409]},"properties":{"name":"Antiquités curiosités","shop":"antiques","phone":"+1-514-525-8772","opening_hours":"Mo-Fr 11:00-18:00; Sa 11:00-17:00","addr:housenumber":"1769"}},
{"type":"Feature","geometry":{"type":"Point","coordinates":[-73.5609992,45.5193543]},"properties":{"name":"Cité déco","shop":"furniture","phone":"+1-514-528-0659","website":"http://www.citedecomeubles.com/","opening_hours":"Tu-Fr 11:00-18:00; Sa 11:00-17:00; Su 12:00-17:00","addr:housenumber":"1761"}},
{"type":"Feature","geometry":{"type":"Point","coordinates":[-73.5599775,45.5188996]},"properties":{"name":"Pho Viet","phone":"+1-514-522-4116","amenity":"restaurant","cuisine":"vietnamese","opening_hours":"Mo-Fr 11:30-15:00,17:00-22:00; Sa 17:00-22:00","addr:housenumber":"1663"}},
{"type":"Feature","geometry":{"type":"Point","coordinates":[-73.5599423,45.5188789]},"properties":{"name":"Touchattou","email":"tout-cha-tou@videotron.ca","phone":"+1-514-597-2428","amenity":"veterinary","opening_hours":"Mo-Fr 09:00-19:00; Sa 09:00-15:00","addr:housenumber":"1657"}},